[
 {
   "city": "Malisheve",
   "country": "Kosovo",
   "lat": 42.4822,
   "lng": 20.7458
 },
 {
   "city": "Prizren",
   "country": "Kosovo",
   "lat": 42.2139,
   "lng": 20.7397
 },
 {
   "city": "Zubin Potok",
   "country": "Kosovo",
   "lat": 42.9144,
   "lng": 20.6897
 },
 {
   "city": "Kamenice",
   "country": "Kosovo",
   "lat": 42.5781,
   "lng": 21.5803
 },
 {
   "city": "Viti",
   "country": "Kosovo",
   "lat": 42.3214,
   "lng": 21.3583
 },
 {
   "city": "Shterpce",
   "country": "Kosovo",
   "lat": 42.2394,
   "lng": 21.0272
 },
 {
   "city": "Shtime",
   "country": "Kosovo",
   "lat": 42.4331,
   "lng": 21.0397
 },
 {
   "city": "Vushtrri",
   "country": "Kosovo",
   "lat": 42.8231,
   "lng": 20.9675
 },
 {
   "city": "Dragash",
   "country": "Kosovo",
   "lat": 42.0265,
   "lng": 20.6533
 },
 {
   "city": "Podujeve",
   "country": "Kosovo",
   "lat": 42.9111,
   "lng": 21.1899
 },
 {
   "city": "Fushe Kosove",
   "country": "Kosovo",
   "lat": 42.6639,
   "lng": 21.0961
 },
 {
   "city": "Kacanik",
   "country": "Kosovo",
   "lat": 42.2319,
   "lng": 21.2594
 },
 {
   "city": "Kline",
   "country": "Kosovo",
   "lat": 42.6217,
   "lng": 20.5778
 },
 {
   "city": "Leposaviq",
   "country": "Kosovo",
   "lat": 43.1039,
   "lng": 20.8028
 },
 {
   "city": "Peje",
   "country": "Kosovo",
   "lat": 42.66,
   "lng": 20.2922
 },
 {
   "city": "Rahovec",
   "country": "Kosovo",
   "lat": 42.3994,
   "lng": 20.6547
 },
 {
   "city": "Gjilan",
   "country": "Kosovo",
   "lat": 42.4689,
   "lng": 21.4633
 },
 {
   "city": "Lipjan",
   "country": "Kosovo",
   "lat": 42.5217,
   "lng": 21.1258
 },
 {
   "city": "Obiliq",
   "country": "Kosovo",
   "lat": 42.6869,
   "lng": 21.0703
 },
 {
   "city": "Gjakove",
   "country": "Kosovo",
   "lat": 42.3803,
   "lng": 20.4308
 },
 {
   "city": "Pristina",
   "country": "Kosovo",
   "lat": 42.6666,
   "lng": 21.1724
 },
 {
   "city": "Decan",
   "country": "Kosovo",
   "lat": 42.5378,
   "lng": 20.2911
 },
 {
   "city": "Istog",
   "country": "Kosovo",
   "lat": 42.7808,
   "lng": 20.4875
 },
 {
   "city": "Hani i Elezit",
   "country": "Kosovo",
   "lat": 42.15,
   "lng": 21.2967
 },
 {
   "city": "Junik",
   "country": "Kosovo",
   "lat": 42.4758,
   "lng": 20.2772
 },
 {
   "city": "Kllokot",
   "country": "Kosovo",
   "lat": 42.3714,
   "lng": 21.3744
 },
 {
   "city": "Mamushe",
   "country": "Kosovo",
   "lat": 42.3308,
   "lng": 20.7269
 },
 {
   "city": "Partesh",
   "country": "Kosovo",
   "lat": 42.4019,
   "lng": 21.4336
 },
 {
   "city": "Ranillug",
   "country": "Kosovo",
   "lat": 42.4922,
   "lng": 21.5989
 },
 {
   "city": "Ferizaj",
   "country": "Kosovo",
   "lat": 42.3706,
   "lng": 21.1553
 },
 {
   "city": "Zvecan",
   "country": "Kosovo",
   "lat": 42.9075,
   "lng": 20.8403
 },
 {
   "city": "Suhareke",
   "country": "Kosovo",
   "lat": 42.3586,
   "lng": 20.825
 },
 {
   "city": "Gllogovc",
   "country": "Kosovo",
   "lat": 42.6283,
   "lng": 20.8939
 },
 {
   "city": "Mitrovice",
   "country": "Kosovo",
   "lat": 42.8833,
   "lng": 20.8667
 },
 {
   "city": "Skenderaj",
   "country": "Kosovo",
   "lat": 42.7467,
   "lng": 20.7886
 },
 {
   "city": "Novoberde",
   "country": "Kosovo",
   "lat": 42.6178,
   "lng": 21.4197
 },
 {
   "city": "Gracanice",
   "country": "Kosovo",
   "lat": 42.6011,
   "lng": 21.1958
 },
 {
   "city": "Longyearbyen",
   "country": "Svalbard",
   "lat": 78.2167,
   "lng": 15.6333
 },
 {
   "city": "Al Quds",
   "country": "West Bank",
   "lat": 31.7764,
   "lng": 35.2269
 },
 {
   "city": "Sanaa",
   "country": "Yemen",
   "lat": 15.3547,
   "lng": 44.2066
 },
 {
   "city": "Marib",
   "country": "Yemen",
   "lat": 15.421,
   "lng": 45.334
 },
 {
   "city": "Al Jabin",
   "country": "Yemen",
   "lat": 14.704,
   "lng": 43.599
 },
 {
   "city": "Hajjah",
   "country": "Yemen",
   "lat": 15.6917,
   "lng": 43.6021
 },
 {
   "city": "Ibb",
   "country": "Yemen",
   "lat": 13.9759,
   "lng": 44.1709
 },
 {
   "city": "Al Hudaydah",
   "country": "Yemen",
   "lat": 14.7979,
   "lng": 42.953
 },
 {
   "city": "Lahij",
   "country": "Yemen",
   "lat": 13.0582,
   "lng": 44.8838
 },
 {
   "city": "Al MaHwit",
   "country": "Yemen",
   "lat": 15.4701,
   "lng": 43.5448
 },
 {
   "city": "Taizz",
   "country": "Yemen",
   "lat": 13.6045,
   "lng": 44.0394
 },
 {
   "city": "Sadah",
   "country": "Yemen",
   "lat": 16.9398,
   "lng": 43.8498
 },
 {
   "city": "Dhamar",
   "country": "Yemen",
   "lat": 14.5575,
   "lng": 44.3875
 },
 {
   "city": "Amran",
   "country": "Yemen",
   "lat": 15.6594,
   "lng": 43.9439
 },
 {
   "city": "Ad dali",
   "country": "Yemen",
   "lat": 13.6957,
   "lng": 44.7314
 },
 {
   "city": "Saywun",
   "country": "Yemen",
   "lat": 15.943,
   "lng": 48.7873
 },
 {
   "city": "Al Bayda",
   "country": "Yemen",
   "lat": 13.979,
   "lng": 45.574
 },
 {
   "city": "Zinjibar",
   "country": "Yemen",
   "lat": 13.1287,
   "lng": 45.3807
 },
 {
   "city": "Rida",
   "country": "Yemen",
   "lat": 14.4295,
   "lng": 44.8341
 },
 {
   "city": "Ataq",
   "country": "Yemen",
   "lat": 14.55,
   "lng": 46.8
 },
 {
   "city": "Al Ghaydah",
   "country": "Yemen",
   "lat": 16.2394,
   "lng": 52.1638
 },
 {
   "city": "Sayhut",
   "country": "Yemen",
   "lat": 15.2105,
   "lng": 51.2454
 },
 {
   "city": "Al Mukalla",
   "country": "Yemen",
   "lat": 14.5412,
   "lng": 49.1259
 },
 {
   "city": "Al Hazm",
   "country": "Yemen",
   "lat": 16.1641,
   "lng": 44.7769
 },
 {
   "city": "Zabid",
   "country": "Yemen",
   "lat": 14.1951,
   "lng": 43.3155
 },
 {
   "city": "Aden",
   "country": "Yemen",
   "lat": 12.7797,
   "lng": 45.0095
 },
 {
   "city": "Hadiboh",
   "country": "Yemen",
   "lat": 12.6519,
   "lng": 54.0239
 },
 {
   "city": "Ash Shihr",
   "country": "Yemen",
   "lat": 14.7593,
   "lng": 49.6092
 },
 {
   "city": "Dzaoudzi",
   "country": "Mayotte",
   "lat": -12.7871,
   "lng": 45.275
 },
 {
   "city": "Lebowakgomo",
   "country": "South Africa",
   "lat": -24.1996,
   "lng": 29.5
 },
 {
   "city": "Potchefstroom",
   "country": "South Africa",
   "lat": -26.6996,
   "lng": 27.1
 },
 {
   "city": "Graaff Reinet",
   "country": "South Africa",
   "lat": -32.3,
   "lng": 24.54
 },
 {
   "city": "Rustenburg",
   "country": "South Africa",
   "lat": -25.65,
   "lng": 27.24
 },
 {
   "city": "Brandfort",
   "country": "South Africa",
   "lat": -28.6996,
   "lng": 26.47
 },
 {
   "city": "Vryheid",
   "country": "South Africa",
   "lat": -27.76,
   "lng": 30.79
 },
 {
   "city": "Vereeniging",
   "country": "South Africa",
   "lat": -26.6496,
   "lng": 27.96
 },
 {
   "city": "Brits",
   "country": "South Africa",
   "lat": -25.6296,
   "lng": 27.78
 },
 {
   "city": "Bethlehem",
   "country": "South Africa",
   "lat": -28.2196,
   "lng": 28.3
 },
 {
   "city": "Ubomba",
   "country": "South Africa",
   "lat": -27.5661,
   "lng": 32.0833
 },
 {
   "city": "Polokwane",
   "country": "South Africa",
   "lat": -23.89,
   "lng": 29.45
 },
 {
   "city": "Springbok",
   "country": "South Africa",
   "lat": -29.6667,
   "lng": 17.8833
 },
 {
   "city": "Thohoyandou",
   "country": "South Africa",
   "lat": -22.95,
   "lng": 30.48
 },
 {
   "city": "Pietermaritzburg",
   "country": "South Africa",
   "lat": -29.61,
   "lng": 30.39
 },
 {
   "city": "Poffader",
   "country": "South Africa",
   "lat": -29.1329,
   "lng": 19.3834
 },
 {
   "city": "Carnarvon",
   "country": "South Africa",
   "lat": -30.9496,
   "lng": 22.1333
 },
 {
   "city": "Kroonstad",
   "country": "South Africa",
   "lat": -27.66,
   "lng": 27.21
 },
 {
   "city": "Alexander Bay",
   "country": "South Africa",
   "lat": -28.6083,
   "lng": 16.5033
 },
 {
   "city": "Bloemhof",
   "country": "South Africa",
   "lat": -27.6496,
   "lng": 25.59
 },
 {
   "city": "Hermanus",
   "country": "South Africa",
   "lat": -34.4096,
   "lng": 19.2299
 },
 {
   "city": "Bethal",
   "country": "South Africa",
   "lat": -26.4696,
   "lng": 29.45
 },
 {
   "city": "Upington",
   "country": "South Africa",
   "lat": -28.46,
   "lng": 21.23
 },
 {
   "city": "Tzaneen",
   "country": "South Africa",
   "lat": -23.8195,
   "lng": 30.17
 },
 {
   "city": "Vanhynsdorp",
   "country": "South Africa",
   "lat": -31.6166,
   "lng": 18.7333
 },
 {
   "city": "Kimberley",
   "country": "South Africa",
   "lat": -28.7468,
   "lng": 24.77
 },
 {
   "city": "Durban",
   "country": "South Africa",
   "lat": -29.865,
   "lng": 30.98
 },
 {
   "city": "Klerksdorp",
   "country": "South Africa",
   "lat": -26.88,
   "lng": 26.62
 },
 {
   "city": "Welkom",
   "country": "South Africa",
   "lat": -27.97,
   "lng": 26.73
 },
 {
   "city": "De Aar",
   "country": "South Africa",
   "lat": -30.65,
   "lng": 24
 },
 {
   "city": "Prieska",
   "country": "South Africa",
   "lat": -29.6595,
   "lng": 22.73
 },
 {
   "city": "Saldanha",
   "country": "South Africa",
   "lat": -33.01,
   "lng": 17.93
 },
 {
   "city": "Middelburg",
   "country": "South Africa",
   "lat": -31.5,
   "lng": 25.01
 },
 {
   "city": "Port St. Johns",
   "country": "South Africa",
   "lat": -31.6279,
   "lng": 29.5283
 },
 {
   "city": "Volksrust",
   "country": "South Africa",
   "lat": -27.3596,
   "lng": 29.89
 },
 {
   "city": "Ulundi",
   "country": "South Africa",
   "lat": -28.3296,
   "lng": 31.41
 },
 {
   "city": "Beaufort West",
   "country": "South Africa",
   "lat": -32.3496,
   "lng": 22.57
 },
 {
   "city": "Komatipoort",
   "country": "South Africa",
   "lat": -25.4096,
   "lng": 31.94
 },
 {
   "city": "Nelspruit",
   "country": "South Africa",
   "lat": -25.4745,
   "lng": 30.9703
 },
 {
   "city": "Standerton",
   "country": "South Africa",
   "lat": -26.9395,
   "lng": 29.24
 },
 {
   "city": "Johannesburg",
   "country": "South Africa",
   "lat": -26.17,
   "lng": 28.03
 },
 {
   "city": "Kuruman",
   "country": "South Africa",
   "lat": -27.4496,
   "lng": 23.42
 },
 {
   "city": "Paarl",
   "country": "South Africa",
   "lat": -33.6996,
   "lng": 18.96
 },
 {
   "city": "Worcester",
   "country": "South Africa",
   "lat": -33.64,
   "lng": 19.4399
 },
 {
   "city": "Colesberg",
   "country": "South Africa",
   "lat": -30.7195,
   "lng": 25.1
 },
 {
   "city": "Umtata",
   "country": "South Africa",
   "lat": -31.58,
   "lng": 28.79
 },
 {
   "city": "Aliwal North",
   "country": "South Africa",
   "lat": -30.6896,
   "lng": 26.71
 },
 {
   "city": "Middelburg",
   "country": "South Africa",
   "lat": -25.7596,
   "lng": 29.47
 },
 {
   "city": "Springs",
   "country": "South Africa",
   "lat": -26.2696,
   "lng": 28.43
 },
 {
   "city": "Benoni",
   "country": "South Africa",
   "lat": -26.1496,
   "lng": 28.3299
 },
 {
   "city": "Port Shepstone",
   "country": "South Africa",
   "lat": -30.7195,
   "lng": 30.46
 },
 {
   "city": "Oudtshoorn",
   "country": "South Africa",
   "lat": -33.58,
   "lng": 22.19
 },
 {
   "city": "Port Elizabeth",
   "country": "South Africa",
   "lat": -33.97,
   "lng": 25.6
 },
 {
   "city": "Port Alfred",
   "country": "South Africa",
   "lat": -33.5995,
   "lng": 26.88
 },
 {
   "city": "East London",
   "country": "South Africa",
   "lat": -32.97,
   "lng": 27.87
 },
 {
   "city": "Mossel Bay",
   "country": "South Africa",
   "lat": -34.17,
   "lng": 22.13
 },
 {
   "city": "Vryburg",
   "country": "South Africa",
   "lat": -26.96,
   "lng": 24.73
 },
 {
   "city": "Uitenhage",
   "country": "South Africa",
   "lat": -33.7596,
   "lng": 25.39
 },
 {
   "city": "Bhisho",
   "country": "South Africa",
   "lat": -32.87,
   "lng": 27.39
 },
 {
   "city": "Knysna",
   "country": "South Africa",
   "lat": -34.0329,
   "lng": 23.0333
 },
 {
   "city": "Queenstown",
   "country": "South Africa",
   "lat": -31.8996,
   "lng": 26.88
 },
 {
   "city": "Cradock",
   "country": "South Africa",
   "lat": -32.1995,
   "lng": 25.61
 },
 {
   "city": "Bredasdorp",
   "country": "South Africa",
   "lat": -34.5295,
   "lng": 20.03
 },
 {
   "city": "Swellendam",
   "country": "South Africa",
   "lat": -34.0196,
   "lng": 20.43
 },
 {
   "city": "Ladysmith",
   "country": "South Africa",
   "lat": -28.5495,
   "lng": 29.78
 },
 {
   "city": "George",
   "country": "South Africa",
   "lat": -33.95,
   "lng": 22.45
 },
 {
   "city": "Grahamstown",
   "country": "South Africa",
   "lat": -33.2996,
   "lng": 26.52
 },
 {
   "city": "Mmabatho",
   "country": "South Africa",
   "lat": -25.83,
   "lng": 25.61
 },
 {
   "city": "Mahikeng",
   "country": "South Africa",
   "lat": -25.8652,
   "lng": 25.6442
 },
 {
   "city": "Musina",
   "country": "South Africa",
   "lat": -22.34,
   "lng": 30.03
 },
 {
   "city": "Pretoria",
   "country": "South Africa",
   "lat": -25.7069,
   "lng": 28.2294
 },
 {
   "city": "Bloemfontein",
   "country": "South Africa",
   "lat": -29.12,
   "lng": 26.2299
 },
 {
   "city": "Cape Town",
   "country": "South Africa",
   "lat": -33.92,
   "lng": 18.435
 },
 {
   "city": "Zambezi",
   "country": "Zambia",
   "lat": -13.54,
   "lng": 23.1099
 },
 {
   "city": "Solwezi",
   "country": "Zambia",
   "lat": -12.1796,
   "lng": 26.4
 },
 {
   "city": "Lusaka",
   "country": "Zambia",
   "lat": -15.4166,
   "lng": 28.2833
 },
 {
   "city": "Kaoma",
   "country": "Zambia",
   "lat": -14.7796,
   "lng": 24.8
 },
 {
   "city": "Chipata",
   "country": "Zambia",
   "lat": -13.6296,
   "lng": 32.64
 },
 {
   "city": "Senanga",
   "country": "Zambia",
   "lat": -16.1196,
   "lng": 23.27
 },
 {
   "city": "Sesheke",
   "country": "Zambia",
   "lat": -17.4695,
   "lng": 24.3
 },
 {
   "city": "Chililabombwe",
   "country": "Zambia",
   "lat": -12.3696,
   "lng": 27.82
 },
 {
   "city": "Chingola",
   "country": "Zambia",
   "lat": -12.5396,
   "lng": 27.85
 },
 {
   "city": "Kasempa",
   "country": "Zambia",
   "lat": -13.4596,
   "lng": 25.82
 },
 {
   "city": "Kitwe",
   "country": "Zambia",
   "lat": -12.81,
   "lng": 28.22
 },
 {
   "city": "Mufulira",
   "country": "Zambia",
   "lat": -12.55,
   "lng": 28.26
 },
 {
   "city": "Nchelenge",
   "country": "Zambia",
   "lat": -9.3496,
   "lng": 28.73
 },
 {
   "city": "Mazabuka",
   "country": "Zambia",
   "lat": -15.86,
   "lng": 27.76
 },
 {
   "city": "Lukulu",
   "country": "Zambia",
   "lat": -14.3896,
   "lng": 23.24
 },
 {
   "city": "Kafue",
   "country": "Zambia",
   "lat": -15.78,
   "lng": 28.18
 },
 {
   "city": "Lundazi",
   "country": "Zambia",
   "lat": -12.2895,
   "lng": 33.17
 },
 {
   "city": "Mansa",
   "country": "Zambia",
   "lat": -11.2,
   "lng": 28.89
 },
 {
   "city": "Mwinilunga",
   "country": "Zambia",
   "lat": -11.7396,
   "lng": 24.44
 },
 {
   "city": "Mumbwa",
   "country": "Zambia",
   "lat": -14.9796,
   "lng": 27.07
 },
 {
   "city": "Kalabo",
   "country": "Zambia",
   "lat": -14.9896,
   "lng": 22.68
 },
 {
   "city": "Nyimba",
   "country": "Zambia",
   "lat": -14.5495,
   "lng": 30.81
 },
 {
   "city": "Kapiri Mposhi",
   "country": "Zambia",
   "lat": -13.9696,
   "lng": 28.66
 },
 {
   "city": "Kabwe",
   "country": "Zambia",
   "lat": -14.44,
   "lng": 28.45
 },
 {
   "city": "Ndola",
   "country": "Zambia",
   "lat": -12.9999,
   "lng": 28.65
 },
 {
   "city": "Kasama",
   "country": "Zambia",
   "lat": -10.1996,
   "lng": 31.1799
 },
 {
   "city": "Mbala",
   "country": "Zambia",
   "lat": -8.84,
   "lng": 31.37
 },
 {
   "city": "Kawambwa",
   "country": "Zambia",
   "lat": -9.7795,
   "lng": 29.08
 },
 {
   "city": "Luanshya",
   "country": "Zambia",
   "lat": -13.1333,
   "lng": 28.4
 },
 {
   "city": "Mongu",
   "country": "Zambia",
   "lat": -15.2796,
   "lng": 23.12
 },
 {
   "city": "Mpika",
   "country": "Zambia",
   "lat": -11.83,
   "lng": 31.46
 },
 {
   "city": "Chinsali",
   "country": "Zambia",
   "lat": -10.5496,
   "lng": 32.06
 },
 {
   "city": "Livingstone",
   "country": "Zambia",
   "lat": -17.86,
   "lng": 25.86
 },
 {
   "city": "Choma",
   "country": "Zambia",
   "lat": -16.8095,
   "lng": 26.97
 },
 {
   "city": "Plumtree",
   "country": "Zimbabwe",
   "lat": -20.4795,
   "lng": 27.82
 },
 {
   "city": "Kariba",
   "country": "Zimbabwe",
   "lat": -16.5296,
   "lng": 28.8
 },
 {
   "city": "Hwange",
   "country": "Zimbabwe",
   "lat": -18.37,
   "lng": 26.5
 },
 {
   "city": "Chiredzi",
   "country": "Zimbabwe",
   "lat": -21.0496,
   "lng": 31.66
 },
 {
   "city": "Mazowe",
   "country": "Zimbabwe",
   "lat": -17.5196,
   "lng": 30.97
 },
 {
   "city": "Zvishavane",
   "country": "Zimbabwe",
   "lat": -20.3296,
   "lng": 30.05
 },
 {
   "city": "Shamva",
   "country": "Zimbabwe",
   "lat": -17.3196,
   "lng": 31.57
 },
 {
   "city": "Harare",
   "country": "Zimbabwe",
   "lat": -17.8178,
   "lng": 31.0447
 },
 {
   "city": "Kwekwe",
   "country": "Zimbabwe",
   "lat": -18.9296,
   "lng": 29.8
 },
 {
   "city": "Kadoma",
   "country": "Zimbabwe",
   "lat": -18.33,
   "lng": 29.9099
 },
 {
   "city": "Beitbridge",
   "country": "Zimbabwe",
   "lat": -22.2096,
   "lng": 29.99
 },
 {
   "city": "Karoi",
   "country": "Zimbabwe",
   "lat": -16.8196,
   "lng": 29.68
 },
 {
   "city": "Victoria Falls",
   "country": "Zimbabwe",
   "lat": -17.9296,
   "lng": 25.84
 },
 {
   "city": "Chitungwiza",
   "country": "Zimbabwe",
   "lat": -18,
   "lng": 31.1
 },
 {
   "city": "Bindura",
   "country": "Zimbabwe",
   "lat": -17.3019,
   "lng": 31.3306
 },
 {
   "city": "Lupane",
   "country": "Zimbabwe",
   "lat": -18.9315,
   "lng": 27.807
 },
 {
   "city": "Marondera",
   "country": "Zimbabwe",
   "lat": -18.1853,
   "lng": 31.5519
 },
 {
   "city": "Masvingo",
   "country": "Zimbabwe",
   "lat": -20.0596,
   "lng": 30.82
 },
 {
   "city": "Mutare",
   "country": "Zimbabwe",
   "lat": -18.97,
   "lng": 32.65
 },
 {
   "city": "Bulawayo",
   "country": "Zimbabwe",
   "lat": -20.17,
   "lng": 28.58
 },
 {
   "city": "Chinhoyi",
   "country": "Zimbabwe",
   "lat": -17.3596,
   "lng": 30.18
 },
 {
   "city": "Gwanda",
   "country": "Zimbabwe",
   "lat": -20.9396,
   "lng": 29.01
 },
 {
   "city": "Gweru",
   "country": "Zimbabwe",
   "lat": -19.45,
   "lng": 29.82
 },
 {
   "city": "Maqat",
   "country": "Kazakhstan",
   "lat": 47.6482,
   "lng": 53.3265
 },
 {
   "city": "Zhangaozen",
   "country": "Kazakhstan",
   "lat": 43.3004,
   "lng": 52.8
 },
 {
   "city": "Taraz",
   "country": "Kazakhstan",
   "lat": 42.9,
   "lng": 71.365
 },
 {
   "city": "Oral",
   "country": "Kazakhstan",
   "lat": 51.2711,
   "lng": 51.335
 },
 {
   "city": "Balqash",
   "country": "Kazakhstan",
   "lat": 46.8532,
   "lng": 74.9502
 },
 {
   "city": "Zaysan",
   "country": "Kazakhstan",
   "lat": 47.4752,
   "lng": 84.8598
 },
 {
   "city": "Oytal",
   "country": "Kazakhstan",
   "lat": 42.9153,
   "lng": 73.2549
 },
 {
   "city": "Zholymbet",
   "country": "Kazakhstan",
   "lat": 51.7502,
   "lng": 71.7099
 },
 {
   "city": "Serebryansk",
   "country": "Kazakhstan",
   "lat": 49.6999,
   "lng": 83.4249
 },
 {
   "city": "Chapaev",
   "country": "Kazakhstan",
   "lat": 50.1915,
   "lng": 51.1449
 },
 {
   "city": "Ridder",
   "country": "Kazakhstan",
   "lat": 50.3554,
   "lng": 83.5149
 },
 {
   "city": "Zhaltyr",
   "country": "Kazakhstan",
   "lat": 51.6324,
   "lng": 69.8328
 },
 {
   "city": "Atbasar",
   "country": "Kazakhstan",
   "lat": 51.8219,
   "lng": 68.3477
 },
 {
   "city": "Aqsay",
   "country": "Kazakhstan",
   "lat": 51.1714,
   "lng": 53.0349
 },
 {
   "city": "Shemonaikha",
   "country": "Kazakhstan",
   "lat": 50.6316,
   "lng": 81.905
 },
 {
   "city": "Atasu",
   "country": "Kazakhstan",
   "lat": 48.6903,
   "lng": 71.6499
 },
 {
   "city": "Rudny",
   "country": "Kazakhstan",
   "lat": 52.9527,
   "lng": 63.13
 },
 {
   "city": "Makhambet",
   "country": "Kazakhstan",
   "lat": 47.6714,
   "lng": 51.5798
 },
 {
   "city": "Fort Shevchenko",
   "country": "Kazakhstan",
   "lat": 44.5171,
   "lng": 50.2666
 },
 {
   "city": "Qusmuryn",
   "country": "Kazakhstan",
   "lat": 52.458,
   "lng": 64.6
 },
 {
   "city": "Oktyabrsk",
   "country": "Kazakhstan",
   "lat": 49.4731,
   "lng": 57.4449
 },
 {
   "city": "Khromtau",
   "country": "Kazakhstan",
   "lat": 50.2699,
   "lng": 58.45
 },
 {
   "city": "Algha",
   "country": "Kazakhstan",
   "lat": 49.9032,
   "lng": 57.335
 },
 {
   "city": "Embi",
   "country": "Kazakhstan",
   "lat": 48.8268,
   "lng": 58.1442
 },
 {
   "city": "Ushtobe",
   "country": "Kazakhstan",
   "lat": 45.2653,
   "lng": 77.97
 },
 {
   "city": "Burylbaytal",
   "country": "Kazakhstan",
   "lat": 44.9387,
   "lng": 74.0303
 },
 {
   "city": "Zhanibek",
   "country": "Kazakhstan",
   "lat": 49.4276,
   "lng": 46.8772
 },
 {
   "city": "Esil",
   "country": "Kazakhstan",
   "lat": 51.957,
   "lng": 66.3775
 },
 {
   "city": "Derzhavinsk",
   "country": "Kazakhstan",
   "lat": 51.1021,
   "lng": 66.3075
 },
 {
   "city": "Saryshaghan",
   "country": "Kazakhstan",
   "lat": 46.1195,
   "lng": 73.6191
 },
 {
   "city": "Turgay",
   "country": "Kazakhstan",
   "lat": 49.626,
   "lng": 63.499
 },
 {
   "city": "Sarqan",
   "country": "Kazakhstan",
   "lat": 45.4203,
   "lng": 79.9149
 },
 {
   "city": "Arqalyq",
   "country": "Kazakhstan",
   "lat": 50.2418,
   "lng": 66.8976
 },
 {
   "city": "Shalqar",
   "country": "Kazakhstan",
   "lat": 47.8363,
   "lng": 59.6141
 },
 {
   "city": "Shieli",
   "country": "Kazakhstan",
   "lat": 44.167,
   "lng": 66.75
 },
 {
   "city": "Bayghanin",
   "country": "Kazakhstan",
   "lat": 48.6917,
   "lng": 55.874
 },
 {
   "city": "Zhezqazghan",
   "country": "Kazakhstan",
   "lat": 47.78,
   "lng": 67.77
 },
 {
   "city": "Mangyshlak",
   "country": "Kazakhstan",
   "lat": 43.6905,
   "lng": 51.1417
 },
 {
   "city": "Zhosaly",
   "country": "Kazakhstan",
   "lat": 45.4877,
   "lng": 64.078
 },
 {
   "city": "Beyneu",
   "country": "Kazakhstan",
   "lat": 45.1834,
   "lng": 55.1
 },
 {
   "city": "Qazaly",
   "country": "Kazakhstan",
   "lat": 45.7628,
   "lng": 62.1075
 },
 {
   "city": "Aral",
   "country": "Kazakhstan",
   "lat": 46.8,
   "lng": 61.6666
 },
 {
   "city": "Ayakoz",
   "country": "Kazakhstan",
   "lat": 47.9647,
   "lng": 80.4297
 },
 {
   "city": "Urzhar",
   "country": "Kazakhstan",
   "lat": 47.1002,
   "lng": 81.6048
 },
 {
   "city": "Qapshaghay",
   "country": "Kazakhstan",
   "lat": 43.8844,
   "lng": 77.0687
 },
 {
   "city": "Esik",
   "country": "Kazakhstan",
   "lat": 43.3691,
   "lng": 77.4438
 },
 {
   "city": "Qaratau",
   "country": "Kazakhstan",
   "lat": 43.1854,
   "lng": 70.46
 },
 {
   "city": "Sharbaqty",
   "country": "Kazakhstan",
   "lat": 52.4999,
   "lng": 78.1499
 },
 {
   "city": "Oostanay",
   "country": "Kazakhstan",
   "lat": 53.2209,
   "lng": 63.6283
 },
 {
   "city": "Kachiry",
   "country": "Kazakhstan",
   "lat": 53.0804,
   "lng": 76.09
 },
 {
   "city": "Kishkenekol",
   "country": "Kazakhstan",
   "lat": 53.6368,
   "lng": 72.3414
 },
 {
   "city": "Bulaevo",
   "country": "Kazakhstan",
   "lat": 54.9053,
   "lng": 70.44
 },
 {
   "city": "Shonzhy",
   "country": "Kazakhstan",
   "lat": 43.5421,
   "lng": 79.4703
 },
 {
   "city": "Qyzylorda",
   "country": "Kazakhstan",
   "lat": 44.8,
   "lng": 65.465
 },
 {
   "city": "Qaraghandy",
   "country": "Kazakhstan",
   "lat": 49.885,
   "lng": 73.115
 },
 {
   "city": "Ertis",
   "country": "Kazakhstan",
   "lat": 53.3453,
   "lng": 75.4499
 },
 {
   "city": "Tayynsha",
   "country": "Kazakhstan",
   "lat": 53.8481,
   "lng": 69.7638
 },
 {
   "city": "Qulan",
   "country": "Kazakhstan",
   "lat": 42.9204,
   "lng": 72.705
 },
 {
   "city": "Shu",
   "country": "Kazakhstan",
   "lat": 43.5953,
   "lng": 73.7448
 },
 {
   "city": "Kentau",
   "country": "Kazakhstan",
   "lat": 43.5165,
   "lng": 68.5199
 },
 {
   "city": "Oskemen",
   "country": "Kazakhstan",
   "lat": 49.99,
   "lng": 82.6149
 },
 {
   "city": "Aqtau",
   "country": "Kazakhstan",
   "lat": 43.6232,
   "lng": 51.2365
 },
 {
   "city": "Taldyqorghan",
   "country": "Kazakhstan",
   "lat": 45,
   "lng": 78.4
 },
 {
   "city": "Astana",
   "country": "Kazakhstan",
   "lat": 51.1811,
   "lng": 71.4278
 },
 {
   "city": "Aqtobe",
   "country": "Kazakhstan",
   "lat": 50.28,
   "lng": 57.17
 },
 {
   "city": "Kokshetau",
   "country": "Kazakhstan",
   "lat": 53.3,
   "lng": 69.42
 },
 {
   "city": "Petropavlovsk",
   "country": "Kazakhstan",
   "lat": 54.88,
   "lng": 69.22
 },
 {
   "city": "Pavlodar",
   "country": "Kazakhstan",
   "lat": 52.3,
   "lng": 76.95
 },
 {
   "city": "Otar",
   "country": "Kazakhstan",
   "lat": 43.5346,
   "lng": 75.2139
 },
 {
   "city": "Almaty",
   "country": "Kazakhstan",
   "lat": 43.325,
   "lng": 76.915
 },
 {
   "city": "Bestobe",
   "country": "Kazakhstan",
   "lat": 52.4997,
   "lng": 73.0997
 },
 {
   "city": "Arys",
   "country": "Kazakhstan",
   "lat": 42.4369,
   "lng": 68.8048
 },
 {
   "city": "Lenger",
   "country": "Kazakhstan",
   "lat": 42.1899,
   "lng": 69.8799
 },
 {
   "city": "Aqsu",
   "country": "Kazakhstan",
   "lat": 52.4502,
   "lng": 71.9597
 },
 {
   "city": "Temirtau",
   "country": "Kazakhstan",
   "lat": 50.065,
   "lng": 72.965
 },
 {
   "city": "Makinsk",
   "country": "Kazakhstan",
   "lat": 52.6404,
   "lng": 70.41
 },
 {
   "city": "Osakarovka",
   "country": "Kazakhstan",
   "lat": 50.5799,
   "lng": 72.5699
 },
 {
   "city": "Qarqaraly",
   "country": "Kazakhstan",
   "lat": 49.4249,
   "lng": 75.4649
 },
 {
   "city": "Ekibastuz",
   "country": "Kazakhstan",
   "lat": 51.73,
   "lng": 75.3199
 },
 {
   "city": "Zyryanovsk",
   "country": "Kazakhstan",
   "lat": 49.7453,
   "lng": 84.2548
 },
 {
   "city": "Komsomolets",
   "country": "Kazakhstan",
   "lat": 53.7506,
   "lng": 62.0502
 },
 {
   "city": "Baykonur",
   "country": "Kazakhstan",
   "lat": 45.6914,
   "lng": 63.2413
 },
 {
   "city": "Erymentau",
   "country": "Kazakhstan",
   "lat": 51.6303,
   "lng": 73.1049
 },
 {
   "city": "Qarazhal",
   "country": "Kazakhstan",
   "lat": 48.0253,
   "lng": 70.7999
 },
 {
   "city": "Tobol",
   "country": "Kazakhstan",
   "lat": 52.698,
   "lng": 62.5749
 },
 {
   "city": "Shar",
   "country": "Kazakhstan",
   "lat": 49.6003,
   "lng": 81.0549
 },
 {
   "city": "Semey",
   "country": "Kazakhstan",
   "lat": 50.435,
   "lng": 80.275
 },
 {
   "city": "Boralday",
   "country": "Kazakhstan",
   "lat": 43.3341,
   "lng": 76.8288
 },
 {
   "city": "Zhetiqara",
   "country": "Kazakhstan",
   "lat": 52.193,
   "lng": 61.2399
 },
 {
   "city": "Aqadyr",
   "country": "Kazakhstan",
   "lat": 48.2749,
   "lng": 72.8599
 },
 {
   "city": "Zharkent",
   "country": "Kazakhstan",
   "lat": 44.1616,
   "lng": 79.9801
 },
 {
   "city": "Qulsary",
   "country": "Kazakhstan",
   "lat": 46.9833,
   "lng": 54.0165
 },
 {
   "city": "Balyqshy",
   "country": "Kazakhstan",
   "lat": 47.0666,
   "lng": 51.8666
 },
 {
   "city": "Atyrau",
   "country": "Kazakhstan",
   "lat": 47.1127,
   "lng": 51.92
 },
 {
   "city": "Shymkent",
   "country": "Kazakhstan",
   "lat": 42.32,
   "lng": 69.595
 },
 {
   "city": "Turkistan",
   "country": "Kazakhstan",
   "lat": 43.3016,
   "lng": 68.2549
 },
 {
   "city": "Xiangkhoang",
   "country": "Laos",
   "lat": 19.3337,
   "lng": 103.3666
 },
 {
   "city": "Muang Phonsavan",
   "country": "Laos",
   "lat": 19.45,
   "lng": 103.2167
 },
 {
   "city": "Vientiane",
   "country": "Laos",
   "lat": 17.9667,
   "lng": 102.6
 },
 {
   "city": "Ban Houayxay",
   "country": "Laos",
   "lat": 20.2775,
   "lng": 100.4128
 },
 {
   "city": "Muang Phon-Hong",
   "country": "Laos",
   "lat": 18.4957,
   "lng": 102.4142
 },
 {
   "city": "Louang Namtha",
   "country": "Laos",
   "lat": 20.95,
   "lng": 101.4167
 },
 {
   "city": "Phongsali",
   "country": "Laos",
   "lat": 21.6833,
   "lng": 102.1
 },
 {
   "city": "Thakhek",
   "country": "Laos",
   "lat": 17.4112,
   "lng": 104.8361
 },
 {
   "city": "Muang Pakxan",
   "country": "Laos",
   "lat": 18.3826,
   "lng": 103.6586
 },
 {
   "city": "Louangphrabang",
   "country": "Laos",
   "lat": 19.8845,
   "lng": 102.1416
 },
 {
   "city": "Xaignabouri",
   "country": "Laos",
   "lat": 19.2505,
   "lng": 101.7501
 },
 {
   "city": "Savannakhet",
   "country": "Laos",
   "lat": 16.5376,
   "lng": 104.773
 },
 {
   "city": "Lamam",
   "country": "Laos",
   "lat": 15.4171,
   "lng": 106.6946
 },
 {
   "city": "Pakxe",
   "country": "Laos",
   "lat": 15.1221,
   "lng": 105.8183
 },
 {
   "city": "Attapu",
   "country": "Laos",
   "lat": 14.808,
   "lng": 106.839
 },
 {
   "city": "Xam Nua",
   "country": "Laos",
   "lat": 20.4167,
   "lng": 104.0333
 },
 {
   "city": "Muang Xai",
   "country": "Laos",
   "lat": 20.6923,
   "lng": 101.9847
 },
 {
   "city": "Saravan",
   "country": "Laos",
   "lat": 15.716,
   "lng": 106.427
 },
 {
   "city": "Champasak",
   "country": "Laos",
   "lat": 14.8833,
   "lng": 105.8667
 },
 {
   "city": "Beirut",
   "country": "Lebanon",
   "lat": 33.872,
   "lng": 35.5097
 },
 {
   "city": "Zahle",
   "country": "Lebanon",
   "lat": 33.8501,
   "lng": 35.9042
 },
 {
   "city": "Baalbek",
   "country": "Lebanon",
   "lat": 34.0058,
   "lng": 36.2181
 },
 {
   "city": "Babda",
   "country": "Lebanon",
   "lat": 33.8333,
   "lng": 35.5333
 },
 {
   "city": "Halba",
   "country": "Lebanon",
   "lat": 34.5428,
   "lng": 36.0797
 },
 {
   "city": "Saida",
   "country": "Lebanon",
   "lat": 33.563,
   "lng": 35.3688
 },
 {
   "city": "Nabatiye et Tahta",
   "country": "Lebanon",
   "lat": 33.3833,
   "lng": 35.45
 },
 {
   "city": "Trablous",
   "country": "Lebanon",
   "lat": 34.42,
   "lng": 35.87
 },
 {
   "city": "Castries",
   "country": "Saint Lucia",
   "lat": 14.002,
   "lng": -61
 },
 {
   "city": "Gamprin",
   "country": "Liechtenstein",
   "lat": 47.2197,
   "lng": 9.5113
 },
 {
   "city": "Triesenberg",
   "country": "Liechtenstein",
   "lat": 47.1182,
   "lng": 9.5444
 },
 {
   "city": "Schaan",
   "country": "Liechtenstein",
   "lat": 47.1661,
   "lng": 9.5096
 },
 {
   "city": "Ruggell",
   "country": "Liechtenstein",
   "lat": 47.2408,
   "lng": 9.5247
 },
 {
   "city": "Mauren",
   "country": "Liechtenstein",
   "lat": 47.2205,
   "lng": 9.5426
 },
 {
   "city": "Eschen",
   "country": "Liechtenstein",
   "lat": 47.2109,
   "lng": 9.5216
 },
 {
   "city": "Triesen",
   "country": "Liechtenstein",
   "lat": 47.1101,
   "lng": 9.524
 },
 {
   "city": "Balzers",
   "country": "Liechtenstein",
   "lat": 47.0667,
   "lng": 9.5025
 },
 {
   "city": "Vaduz",
   "country": "Liechtenstein",
   "lat": 47.1337,
   "lng": 9.5167
 },
 {
   "city": "Planken",
   "country": "Liechtenstein",
   "lat": 47.1844,
   "lng": 9.5436
 },
 {
   "city": "Schellenberg",
   "country": "Liechtenstein",
   "lat": 47.2325,
   "lng": 9.5463
 },
 {
   "city": "Colombo",
   "country": "Sri Lanka",
   "lat": 6.932,
   "lng": 79.8578
 },
 {
   "city": "Ratnapura",
   "country": "Sri Lanka",
   "lat": 6.693,
   "lng": 80.386
 },
 {
   "city": "Matara",
   "country": "Sri Lanka",
   "lat": 5.949,
   "lng": 80.5428
 },
 {
   "city": "Sri Jawewardenepura Kotte",
   "country": "Sri Lanka",
   "lat": 6.9,
   "lng": 79.95
 },
 {
   "city": "Moratuwa",
   "country": "Sri Lanka",
   "lat": 6.7804,
   "lng": 79.88
 },
 {
   "city": "Anuradhapura",
   "country": "Sri Lanka",
   "lat": 8.35,
   "lng": 80.3833
 },
 {
   "city": "Galle",
   "country": "Sri Lanka",
   "lat": 6.03,
   "lng": 80.24
 },
 {
   "city": "Puttalan",
   "country": "Sri Lanka",
   "lat": 8.033,
   "lng": 79.826
 },
 {
   "city": "Kandy",
   "country": "Sri Lanka",
   "lat": 7.28,
   "lng": 80.67
 },
 {
   "city": "Badulla",
   "country": "Sri Lanka",
   "lat": 6.9837,
   "lng": 81.0499
 },
 {
   "city": "Trincomalee",
   "country": "Sri Lanka",
   "lat": 8.569,
   "lng": 81.233
 },
 {
   "city": "Kilinochchi",
   "country": "Sri Lanka",
   "lat": 9.4004,
   "lng": 80.3999
 },
 {
   "city": "Batticaloa",
   "country": "Sri Lanka",
   "lat": 7.717,
   "lng": 81.7
 },
 {
   "city": "Jaffna",
   "country": "Sri Lanka",
   "lat": 9.675,
   "lng": 80.005
 },
 {
   "city": "Bopolu",
   "country": "Liberia",
   "lat": 7.0667,
   "lng": -10.4875
 },
 {
   "city": "Voinjama",
   "country": "Liberia",
   "lat": 8.4167,
   "lng": -9.75
 },
 {
   "city": "Robertsport",
   "country": "Liberia",
   "lat": 6.7533,
   "lng": -11.3686
 },
 {
   "city": "Buchanan",
   "country": "Liberia",
   "lat": 5.9161,
   "lng": -10.0525
 },
 {
   "city": "Monrovia",
   "country": "Liberia",
   "lat": 6.3106,
   "lng": -10.8048
 },
 {
   "city": "Tubmanburg",
   "country": "Liberia",
   "lat": 6.8706,
   "lng": -10.8211
 },
 {
   "city": "Buchanan",
   "country": "Liberia",
   "lat": 5.8811,
   "lng": -10.0447
 },
 {
   "city": "Zwedru",
   "country": "Liberia",
   "lat": 6.0704,
   "lng": -8.13
 },
 {
   "city": "Barclayville",
   "country": "Liberia",
   "lat": 4.8,
   "lng": -8.1667
 },
 {
   "city": "Rivercess",
   "country": "Liberia",
   "lat": 5.465,
   "lng": -9.578
 },
 {
   "city": "Fish Town",
   "country": "Liberia",
   "lat": 5.1974,
   "lng": -7.8758
 },
 {
   "city": "Gbarnga",
   "country": "Liberia",
   "lat": 7.0104,
   "lng": -9.49
 },
 {
   "city": "Kakata",
   "country": "Liberia",
   "lat": 6.526,
   "lng": -10.349
 },
 {
   "city": "Sanniquellie",
   "country": "Liberia",
   "lat": 7.371,
   "lng": -8.685
 },
 {
   "city": "Greenville",
   "country": "Liberia",
   "lat": 5.0111,
   "lng": -9.0388
 },
 {
   "city": "Bensonville",
   "country": "Liberia",
   "lat": 6.4333,
   "lng": -10.6
 },
 {
   "city": "Harper",
   "country": "Liberia",
   "lat": 4.3754,
   "lng": -7.717
 },
 {
   "city": "Maseru",
   "country": "Lesotho",
   "lat": -29.3167,
   "lng": 27.4833
 },
 {
   "city": "Mokhotlong",
   "country": "Lesotho",
   "lat": -29.291,
   "lng": 29.078
 },
 {
   "city": "Thaba-Tseka",
   "country": "Lesotho",
   "lat": -29.522,
   "lng": 28.6084
 },
 {
   "city": "Moyeni",
   "country": "Lesotho",
   "lat": -30.411,
   "lng": 27.716
 },
 {
   "city": "Qachaï¿½s Nek",
   "country": "Lesotho",
   "lat": -30.1154,
   "lng": 28.6894
 },
 {
   "city": "Mafetang",
   "country": "Lesotho",
   "lat": -29.8166,
   "lng": 27.25
 },
 {
   "city": "Hlotse",
   "country": "Lesotho",
   "lat": -28.878,
   "lng": 28.056
 },
 {
   "city": "Teyateyaneng",
   "country": "Lesotho",
   "lat": -29.153,
   "lng": 27.753
 },
 {
   "city": "Mohales Hoek",
   "country": "Lesotho",
   "lat": -30.159,
   "lng": 27.48
 },
 {
   "city": "Butha-Buthe",
   "country": "Lesotho",
   "lat": -28.75,
   "lng": 28.25
 },
 {
   "city": "Klaipeda",
   "country": "Lithuania",
   "lat": 55.7204,
   "lng": 21.1199
 },
 {
   "city": "Palanga",
   "country": "Lithuania",
   "lat": 55.9203,
   "lng": 21.071
 },
 {
   "city": "Nida",
   "country": "Lithuania",
   "lat": 55.3086,
   "lng": 20.9965
 },
 {
   "city": "Kretinga",
   "country": "Lithuania",
   "lat": 55.8888,
   "lng": 21.2445
 },
 {
   "city": "Taurage",
   "country": "Lithuania",
   "lat": 55.2522,
   "lng": 22.2897
 },
 {
   "city": "Silute",
   "country": "Lithuania",
   "lat": 55.3453,
   "lng": 21.4733
 },
 {
   "city": "Rietavas",
   "country": "Lithuania",
   "lat": 55.7271,
   "lng": 21.9234
 },
 {
   "city": "Plunge",
   "country": "Lithuania",
   "lat": 55.9077,
   "lng": 21.8456
 },
 {
   "city": "Silale",
   "country": "Lithuania",
   "lat": 55.4898,
   "lng": 22.1869
 },
 {
   "city": "Visaginas",
   "country": "Lithuania",
   "lat": 55.5968,
   "lng": 26.4398
 },
 {
   "city": "Zarasai",
   "country": "Lithuania",
   "lat": 55.7322,
   "lng": 26.2512
 },
 {
   "city": "Ignalina",
   "country": "Lithuania",
   "lat": 55.3406,
   "lng": 26.1605
 },
 {
   "city": "Utena",
   "country": "Lithuania",
   "lat": 55.4976,
   "lng": 25.5992
 },
 {
   "city": "Svencionys",
   "country": "Lithuania",
   "lat": 55.133,
   "lng": 26.1595
 },
 {
   "city": "RokiSkis",
   "country": "Lithuania",
   "lat": 55.9587,
   "lng": 25.5947
 },
 {
   "city": "Moletai",
   "country": "Lithuania",
   "lat": 55.2247,
   "lng": 25.4169
 },
 {
   "city": "Salcininkai",
   "country": "Lithuania",
   "lat": 54.3086,
   "lng": 25.3868
 },
 {
   "city": "Vilnius",
   "country": "Lithuania",
   "lat": 54.6834,
   "lng": 25.3166
 },
 {
   "city": "KupiSkis",
   "country": "Lithuania",
   "lat": 55.8401,
   "lng": 24.9803
 },
 {
   "city": "Trakai",
   "country": "Lithuania",
   "lat": 54.6399,
   "lng": 24.936
 },
 {
   "city": "Birzai",
   "country": "Lithuania",
   "lat": 56.1986,
   "lng": 24.7521
 },
 {
   "city": "AnykSciai",
   "country": "Lithuania",
   "lat": 55.5246,
   "lng": 25.1066
 },
 {
   "city": "TelSiai",
   "country": "Lithuania",
   "lat": 55.9831,
   "lng": 22.2343
 },
 {
   "city": "Kelme",
   "country": "Lithuania",
   "lat": 55.6301,
   "lng": 22.9349
 },
 {
   "city": "Marijampole",
   "country": "Lithuania",
   "lat": 54.5599,
   "lng": 23.3541
 },
 {
   "city": "Lazdijai",
   "country": "Lithuania",
   "lat": 54.2333,
   "lng": 23.5147
 },
 {
   "city": "Sakiai",
   "country": "Lithuania",
   "lat": 54.9534,
   "lng": 23.0478
 },
 {
   "city": "RadviliSkis",
   "country": "Lithuania",
   "lat": 55.8111,
   "lng": 23.5411
 },
 {
   "city": "Siauliai",
   "country": "Lithuania",
   "lat": 55.9386,
   "lng": 23.325
 },
 {
   "city": "BirStonas",
   "country": "Lithuania",
   "lat": 54.6048,
   "lng": 24.0311
 },
 {
   "city": "Druskininkai",
   "country": "Lithuania",
   "lat": 54.0157,
   "lng": 23.987
 },
 {
   "city": "Kedainiai",
   "country": "Lithuania",
   "lat": 55.2878,
   "lng": 23.9727
 },
 {
   "city": "Alytus",
   "country": "Lithuania",
   "lat": 54.3964,
   "lng": 24.0414
 },
 {
   "city": "Prienai",
   "country": "Lithuania",
   "lat": 54.636,
   "lng": 23.9458
 },
 {
   "city": "Elektrenai",
   "country": "Lithuania",
   "lat": 54.7863,
   "lng": 24.6626
 },
 {
   "city": "Kaunas",
   "country": "Lithuania",
   "lat": 54.9504,
   "lng": 23.88
 },
 {
   "city": "Jonava",
   "country": "Lithuania",
   "lat": 55.0801,
   "lng": 24.2754
 },
 {
   "city": "KaiSiadorys",
   "country": "Lithuania",
   "lat": 54.8653,
   "lng": 24.4682
 },
 {
   "city": "Panevezys",
   "country": "Lithuania",
   "lat": 55.74,
   "lng": 24.37
 },
 {
   "city": "JoniSkis",
   "country": "Lithuania",
   "lat": 56.2394,
   "lng": 23.6154
 },
 {
   "city": "Kazl_ Ruda",
   "country": "Lithuania",
   "lat": 54.7497,
   "lng": 23.495
 },
 {
   "city": "VilkaviSkis",
   "country": "Lithuania",
   "lat": 54.648,
   "lng": 23.0305
 },
 {
   "city": "Pasvalys",
   "country": "Lithuania",
   "lat": 56.0625,
   "lng": 24.3997
 },
 {
   "city": "Pakruojis",
   "country": "Lithuania",
   "lat": 55.9789,
   "lng": 23.8551
 },
 {
   "city": "Raseiniai",
   "country": "Lithuania",
   "lat": 55.3797,
   "lng": 23.1239
 },
 {
   "city": "Pagegiai",
   "country": "Lithuania",
   "lat": 55.1379,
   "lng": 21.9138
 },
 {
   "city": "Jurbarkas",
   "country": "Lithuania",
   "lat": 55.0756,
   "lng": 22.7642
 },
 {
   "city": "Kalvarija",
   "country": "Lithuania",
   "lat": 54.4172,
   "lng": 23.2283
 },
 {
   "city": "Sirvintos",
   "country": "Lithuania",
   "lat": 55.044,
   "lng": 24.9545
 },
 {
   "city": "Skuodas",
   "country": "Lithuania",
   "lat": 56.2706,
   "lng": 21.5321
 },
 {
   "city": "Mazeikiai",
   "country": "Lithuania",
   "lat": 56.3122,
   "lng": 22.3265
 },
 {
   "city": "Akmene",
   "country": "Lithuania",
   "lat": 56.25,
   "lng": 22.75
 },
 {
   "city": "Ukmerge",
   "country": "Lithuania",
   "lat": 55.2494,
   "lng": 24.7636
 },
 {
   "city": "Varena",
   "country": "Lithuania",
   "lat": 54.2155,
   "lng": 24.5754
 },
 {
   "city": "Capellen",
   "country": "Luxembourg",
   "lat": 49.645,
   "lng": 5.9908
 },
 {
   "city": "Esch-sur-Alzette",
   "country": "Luxembourg",
   "lat": 49.4958,
   "lng": 5.9806
 },
 {
   "city": "Remich",
   "country": "Luxembourg",
   "lat": 49.545,
   "lng": 6.3669
 },
 {
   "city": "Echternach",
   "country": "Luxembourg",
   "lat": 49.8056,
   "lng": 6.4222
 },
 {
   "city": "Mersch",
   "country": "Luxembourg",
   "lat": 49.7489,
   "lng": 6.1061
 },
 {
   "city": "Redange-sur-Attert",
   "country": "Luxembourg",
   "lat": 49.7656,
   "lng": 5.8908
 },
 {
   "city": "Vianden",
   "country": "Luxembourg",
   "lat": 49.935,
   "lng": 6.2089
 },
 {
   "city": "Wiltz",
   "country": "Luxembourg",
   "lat": 49.9689,
   "lng": 5.9319
 },
 {
   "city": "Clervaux",
   "country": "Luxembourg",
   "lat": 50.0547,
   "lng": 6.0314
 },
 {
   "city": "Diekirch",
   "country": "Luxembourg",
   "lat": 49.8833,
   "lng": 6.1667
 },
 {
   "city": "Grevenmacher",
   "country": "Luxembourg",
   "lat": 49.7,
   "lng": 6.3333
 },
 {
   "city": "Luxembourg",
   "country": "Luxembourg",
   "lat": 49.6117,
   "lng": 6.13
 },
 {
   "city": "Auce",
   "country": "Latvia",
   "lat": 56.4611,
   "lng": 22.9028
 },
 {
   "city": "Daugavpils",
   "country": "Latvia",
   "lat": 55.88,
   "lng": 26.51
 },
 {
   "city": "Jekabpils",
   "country": "Latvia",
   "lat": 56.4833,
   "lng": 25.85
 },
 {
   "city": "Salacgriva",
   "country": "Latvia",
   "lat": 57.7531,
   "lng": 24.359
 },
 {
   "city": "Ventspils",
   "country": "Latvia",
   "lat": 57.3899,
   "lng": 21.5606
 },
 {
   "city": "Dundaga",
   "country": "Latvia",
   "lat": 57.505,
   "lng": 22.3504
 },
 {
   "city": "Jaunjelgava",
   "country": "Latvia",
   "lat": 56.6132,
   "lng": 25.0832
 },
 {
   "city": "Nereta",
   "country": "Latvia",
   "lat": 56.2044,
   "lng": 25.3077
 },
 {
   "city": "Alsunga",
   "country": "Latvia",
   "lat": 56.9801,
   "lng": 21.564
 },
 {
   "city": "Kuldiga",
   "country": "Latvia",
   "lat": 56.969,
   "lng": 21.968
 },
 {
   "city": "Pavilosta",
   "country": "Latvia",
   "lat": 56.8898,
   "lng": 21.1817
 },
 {
   "city": "Pinki",
   "country": "Latvia",
   "lat": 56.9419,
   "lng": 23.9137
 },
 {
   "city": "adazi",
   "country": "Latvia",
   "lat": 57.0705,
   "lng": 24.3371
 },
 {
   "city": "Kandava",
   "country": "Latvia",
   "lat": 57.0389,
   "lng": 22.7724
 },
 {
   "city": "Roja",
   "country": "Latvia",
   "lat": 57.5015,
   "lng": 22.8088
 },
 {
   "city": "Carnikava",
   "country": "Latvia",
   "lat": 57.1293,
   "lng": 24.2842
 },
 {
   "city": "Garkalne",
   "country": "Latvia",
   "lat": 57.0449,
   "lng": 24.4195
 },
 {
   "city": "Saulkrasti",
   "country": "Latvia",
   "lat": 57.2599,
   "lng": 24.4189
 },
 {
   "city": "Smarde",
   "country": "Latvia",
   "lat": 56.9533,
   "lng": 23.3387
 },
 {
   "city": "Mersrags",
   "country": "Latvia",
   "lat": 57.3364,
   "lng": 23.1235
 },
 {
   "city": "Talsi",
   "country": "Latvia",
   "lat": 57.2465,
   "lng": 22.5876
 },
 {
   "city": "Jurmala",
   "country": "Latvia",
   "lat": 56.9567,
   "lng": 23.7233
 },
 {
   "city": "Marupe",
   "country": "Latvia",
   "lat": 56.9032,
   "lng": 24.0467
 },
 {
   "city": "Ulbroka",
   "country": "Latvia",
   "lat": 56.9363,
   "lng": 24.3039
 },
 {
   "city": "Zilupe",
   "country": "Latvia",
   "lat": 56.386,
   "lng": 28.1218
 },
 {
   "city": "Ludza",
   "country": "Latvia",
   "lat": 56.5396,
   "lng": 27.7189
 },
 {
   "city": "Dagda",
   "country": "Latvia",
   "lat": 56.0961,
   "lng": 27.5328
 },
 {
   "city": "Baltinava",
   "country": "Latvia",
   "lat": 56.9439,
   "lng": 27.644
 },
 {
   "city": "Cibla",
   "country": "Latvia",
   "lat": 56.5498,
   "lng": 27.8837
 },
 {
   "city": "Karsava",
   "country": "Latvia",
   "lat": 56.7874,
   "lng": 27.6732
 },
 {
   "city": "Riga",
   "country": "Latvia",
   "lat": 56.95,
   "lng": 24.1
 },
 {
   "city": "Kraslava",
   "country": "Latvia",
   "lat": 55.8969,
   "lng": 27.172
 },
 {
   "city": "Limbazi",
   "country": "Latvia",
   "lat": 57.513,
   "lng": 24.724
 },
 {
   "city": "Preili",
   "country": "Latvia",
   "lat": 56.294,
   "lng": 26.7248
 },
 {
   "city": "Vecvarkava",
   "country": "Latvia",
   "lat": 56.1984,
   "lng": 26.5081
 },
 {
   "city": "Ilukste",
   "country": "Latvia",
   "lat": 55.9779,
   "lng": 26.2978
 },
 {
   "city": "Nica",
   "country": "Latvia",
   "lat": 56.3456,
   "lng": 21.0646
 },
 {
   "city": "Bauska",
   "country": "Latvia",
   "lat": 56.4079,
   "lng": 24.1944
 },
 {
   "city": "Vilaka",
   "country": "Latvia",
   "lat": 57.1843,
   "lng": 27.6719
 },
 {
   "city": "Livani",
   "country": "Latvia",
   "lat": 56.3567,
   "lng": 26.1761
 },
 {
   "city": "Aluksne",
   "country": "Latvia",
   "lat": 57.4216,
   "lng": 27.0466
 },
 {
   "city": "Jaunpils",
   "country": "Latvia",
   "lat": 56.7314,
   "lng": 23.0125
 },
 {
   "city": "Broceni",
   "country": "Latvia",
   "lat": 56.6789,
   "lng": 22.5694
 },
 {
   "city": "Rugaji",
   "country": "Latvia",
   "lat": 57.0033,
   "lng": 27.1337
 },
 {
   "city": "Riebini",
   "country": "Latvia",
   "lat": 56.3403,
   "lng": 26.7999
 },
 {
   "city": "Vilani",
   "country": "Latvia",
   "lat": 56.5505,
   "lng": 26.9298
 },
 {
   "city": "Varaklani",
   "country": "Latvia",
   "lat": 56.6091,
   "lng": 26.7547
 },
 {
   "city": "Ape",
   "country": "Latvia",
   "lat": 57.5394,
   "lng": 26.694
 },
 {
   "city": "Madona",
   "country": "Latvia",
   "lat": 56.851,
   "lng": 26.2184
 },
 {
   "city": "Jaunpiebalga",
   "country": "Latvia",
   "lat": 57.1775,
   "lng": 26.0284
 },
 {
   "city": "Lubana",
   "country": "Latvia",
   "lat": 56.9043,
   "lng": 26.7161
 },
 {
   "city": "Gulbene",
   "country": "Latvia",
   "lat": 57.1734,
   "lng": 26.7527
 },
 {
   "city": "Balvi",
   "country": "Latvia",
   "lat": 57.1287,
   "lng": 27.27
 },
 {
   "city": "Akniste",
   "country": "Latvia",
   "lat": 56.1615,
   "lng": 25.7482
 },
 {
   "city": "Viesite",
   "country": "Latvia",
   "lat": 56.3465,
   "lng": 25.5581
 },
 {
   "city": "Cesvaine",
   "country": "Latvia",
   "lat": 56.9675,
   "lng": 26.3076
 },
 {
   "city": "kegums",
   "country": "Latvia",
   "lat": 56.7455,
   "lng": 24.725
 },
 {
   "city": "Vecpiebalga",
   "country": "Latvia",
   "lat": 57.0618,
   "lng": 25.8179
 },
 {
   "city": "Smiltene",
   "country": "Latvia",
   "lat": 57.4242,
   "lng": 25.9017
 },
 {
   "city": "DrabeSi",
   "country": "Latvia",
   "lat": 57.2433,
   "lng": 25.2803
 },
 {
   "city": "Cesis",
   "country": "Latvia",
   "lat": 57.3091,
   "lng": 25.2761
 },
 {
   "city": "ergli",
   "country": "Latvia",
   "lat": 56.8988,
   "lng": 25.6429
 },
 {
   "city": "Valka",
   "country": "Latvia",
   "lat": 57.7767,
   "lng": 26.0118
 },
 {
   "city": "Grobina",
   "country": "Latvia",
   "lat": 56.5358,
   "lng": 21.1747
 },
 {
   "city": "Strenci",
   "country": "Latvia",
   "lat": 57.6269,
   "lng": 25.6919
 },
 {
   "city": "Murmuiza",
   "country": "Latvia",
   "lat": 57.4731,
   "lng": 25.4917
 },
 {
   "city": "Mazsalaca",
   "country": "Latvia",
   "lat": 57.8619,
   "lng": 25.0547
 },
 {
   "city": "Aloja",
   "country": "Latvia",
   "lat": 57.7672,
   "lng": 24.8774
 },
 {
   "city": "Burtnieki",
   "country": "Latvia",
   "lat": 57.6949,
   "lng": 25.275
 },
 {
   "city": "Koknese",
   "country": "Latvia",
   "lat": 56.6516,
   "lng": 25.4364
 },
 {
   "city": "Aizkraukle",
   "country": "Latvia",
   "lat": 56.6029,
   "lng": 25.2636
 },
 {
   "city": "Skriveri",
   "country": "Latvia",
   "lat": 56.6485,
   "lng": 25.1195
 },
 {
   "city": "Baldone",
   "country": "Latvia",
   "lat": 56.7445,
   "lng": 24.4008
 },
 {
   "city": "Vecumnieki",
   "country": "Latvia",
   "lat": 56.6061,
   "lng": 24.5223
 },
 {
   "city": "Sala",
   "country": "Latvia",
   "lat": 56.5047,
   "lng": 25.7618
 },
 {
   "city": "Plavinas",
   "country": "Latvia",
   "lat": 56.6177,
   "lng": 25.7194
 },
 {
   "city": "Liepaga",
   "country": "Latvia",
   "lat": 56.51,
   "lng": 21.01
 },
 {
   "city": "Rujiena",
   "country": "Latvia",
   "lat": 57.8961,
   "lng": 25.3342
 },
 {
   "city": "NaukSeni",
   "country": "Latvia",
   "lat": 57.8842,
   "lng": 25.458
 },
 {
   "city": "Liegi",
   "country": "Latvia",
   "lat": 56.5797,
   "lng": 21.3338
 },
 {
   "city": "Rauna",
   "country": "Latvia",
   "lat": 57.3337,
   "lng": 25.6085
 },
 {
   "city": "Aizpute",
   "country": "Latvia",
   "lat": 56.7211,
   "lng": 21.6016
 },
 {
   "city": "Koceni",
   "country": "Latvia",
   "lat": 57.5198,
   "lng": 25.3404
 },
 {
   "city": "Valmiera",
   "country": "Latvia",
   "lat": 57.5387,
   "lng": 25.4257
 },
 {
   "city": "Sigulda",
   "country": "Latvia",
   "lat": 57.1538,
   "lng": 24.8595
 },
 {
   "city": "Priekuli",
   "country": "Latvia",
   "lat": 57.3115,
   "lng": 25.3571
 },
 {
   "city": "Ogre",
   "country": "Latvia",
   "lat": 56.8113,
   "lng": 24.6113
 },
 {
   "city": "Ragana",
   "country": "Latvia",
   "lat": 57.1821,
   "lng": 24.7056
 },
 {
   "city": "Loja",
   "country": "Latvia",
   "lat": 57.1534,
   "lng": 24.6433
 },
 {
   "city": "Ropazi",
   "country": "Latvia",
   "lat": 56.9747,
   "lng": 24.6329
 },
 {
   "city": "Priekule",
   "country": "Latvia",
   "lat": 56.4458,
   "lng": 21.5939
 },
 {
   "city": "Iecava",
   "country": "Latvia",
   "lat": 56.5977,
   "lng": 24.2076
 },
 {
   "city": "Rucava",
   "country": "Latvia",
   "lat": 56.164,
   "lng": 21.1627
 },
 {
   "city": "Pilsrundale",
   "country": "Latvia",
   "lat": 56.4181,
   "lng": 24.0162
 },
 {
   "city": "Salaspils",
   "country": "Latvia",
   "lat": 56.861,
   "lng": 24.3498
 },
 {
   "city": "IkSkile",
   "country": "Latvia",
   "lat": 56.834,
   "lng": 24.4968
 },
 {
   "city": "Lielvarde",
   "country": "Latvia",
   "lat": 56.7213,
   "lng": 24.8062
 },
 {
   "city": "Incukalns",
   "country": "Latvia",
   "lat": 57.0987,
   "lng": 24.6863
 },
 {
   "city": "Malpils",
   "country": "Latvia",
   "lat": 57.0101,
   "lng": 24.9578
 },
 {
   "city": "Olaine",
   "country": "Latvia",
   "lat": 56.7947,
   "lng": 23.9358
 },
 {
   "city": "kekava",
   "country": "Latvia",
   "lat": 56.8296,
   "lng": 24.2318
 },
 {
   "city": "Ligatne",
   "country": "Latvia",
   "lat": 57.2379,
   "lng": 25.0436
 },
 {
   "city": "Stalbe",
   "country": "Latvia",
   "lat": 57.3708,
   "lng": 25.0324
 },
 {
   "city": "Jelgava",
   "country": "Latvia",
   "lat": 56.6527,
   "lng": 23.7128
 },
 {
   "city": "Skrunda",
   "country": "Latvia",
   "lat": 56.6775,
   "lng": 22.0165
 },
 {
   "city": "Vainode",
   "country": "Latvia",
   "lat": 56.4185,
   "lng": 21.8541
 },
 {
   "city": "Saldus",
   "country": "Latvia",
   "lat": 56.6666,
   "lng": 22.4935
 },
 {
   "city": "Tukums",
   "country": "Latvia",
   "lat": 56.9676,
   "lng": 23.1555
 },
 {
   "city": "Tervete",
   "country": "Latvia",
   "lat": 56.4798,
   "lng": 23.3902
 },
 {
   "city": "Dobele",
   "country": "Latvia",
   "lat": 56.6237,
   "lng": 23.2751
 },
 {
   "city": "Rezekne",
   "country": "Latvia",
   "lat": 56.5,
   "lng": 27.3166
 },
 {
   "city": "Aglona",
   "country": "Latvia",
   "lat": 56.1327,
   "lng": 27.0068
 },
 {
   "city": "Ozolnieki",
   "country": "Latvia",
   "lat": 56.6899,
   "lng": 23.7761
 },
 {
   "city": "Tripoli",
   "country": "Libya",
   "lat": 32.8925,
   "lng": 13.18
 },
 {
   "city": "Al Aziziyah",
   "country": "Libya",
   "lat": 32.5319,
   "lng": 13.0175
 },
 {
   "city": "Zuwarah",
   "country": "Libya",
   "lat": 32.9344,
   "lng": 12.0791
 },
 {
   "city": "Al Khums",
   "country": "Libya",
   "lat": 32.6604,
   "lng": 14.26
 },
 {
   "city": "As Sidr",
   "country": "Libya",
   "lat": 30.6704,
   "lng": 18.2666
 },
 {
   "city": "Ghadamis",
   "country": "Libya",
   "lat": 30.1333,
   "lng": 9.5
 },
 {
   "city": "Dirj",
   "country": "Libya",
   "lat": 30.1679,
   "lng": 10.4567
 },
 {
   "city": "Nalut",
   "country": "Libya",
   "lat": 31.8804,
   "lng": 10.97
 },
 {
   "city": "Umm al Abid",
   "country": "Libya",
   "lat": 27.517,
   "lng": 15.0333
 },
 {
   "city": "Sabha",
   "country": "Libya",
   "lat": 27.0333,
   "lng": 14.4333
 },
 {
   "city": "Birak",
   "country": "Libya",
   "lat": 27.5333,
   "lng": 14.2834
 },
 {
   "city": "Idri",
   "country": "Libya",
   "lat": 27.4471,
   "lng": 13.0517
 },
 {
   "city": "Zillah",
   "country": "Libya",
   "lat": 28.5504,
   "lng": 17.5834
 },
 {
   "city": "Hun",
   "country": "Libya",
   "lat": 29.1167,
   "lng": 15.9333
 },
 {
   "city": "Az Zawiyah",
   "country": "Libya",
   "lat": 32.7604,
   "lng": 12.72
 },
 {
   "city": "Awjilah",
   "country": "Libya",
   "lat": 29.108,
   "lng": 21.2869
 },
 {
   "city": "El Agheila",
   "country": "Libya",
   "lat": 30.257,
   "lng": 19.2
 },
 {
   "city": "Maradah",
   "country": "Libya",
   "lat": 29.2337,
   "lng": 19.2166
 },
 {
   "city": "Ajdabiya",
   "country": "Libya",
   "lat": 30.77,
   "lng": 20.22
 },
 {
   "city": "Darnah",
   "country": "Libya",
   "lat": 32.7648,
   "lng": 22.6391
 },
 {
   "city": "Al Jaghbub",
   "country": "Libya",
   "lat": 29.7504,
   "lng": 24.5166
 },
 {
   "city": "Mizdah",
   "country": "Libya",
   "lat": 31.4337,
   "lng": 12.9833
 },
 {
   "city": "Gharyan",
   "country": "Libya",
   "lat": 32.1704,
   "lng": 13.02
 },
 {
   "city": "Tubruq",
   "country": "Libya",
   "lat": 32.08,
   "lng": 23.96
 },
 {
   "city": "Shahhat",
   "country": "Libya",
   "lat": 32.8281,
   "lng": 21.8622
 },
 {
   "city": "Tajarhi",
   "country": "Libya",
   "lat": 24.3704,
   "lng": 14.4708
 },
 {
   "city": "Al Bayda",
   "country": "Libya",
   "lat": 32.7604,
   "lng": 21.62
 },
 {
   "city": "Ghat",
   "country": "Libya",
   "lat": 24.9647,
   "lng": 10.1728
 },
 {
   "city": "Tmassah",
   "country": "Libya",
   "lat": 26.3666,
   "lng": 15.8
 },
 {
   "city": "Marzuq",
   "country": "Libya",
   "lat": 25.9044,
   "lng": 13.8972
 },
 {
   "city": "Al Marj",
   "country": "Libya",
   "lat": 32.5005,
   "lng": 20.83
 },
 {
   "city": "Surt",
   "country": "Libya",
   "lat": 31.21,
   "lng": 16.59
 },
 {
   "city": "Bani Walid",
   "country": "Libya",
   "lat": 31.7704,
   "lng": 13.99
 },
 {
   "city": "Awbari",
   "country": "Libya",
   "lat": 26.5903,
   "lng": 12.7751
 },
 {
   "city": "Al Jawf",
   "country": "Libya",
   "lat": 24.2,
   "lng": 23.29
 },
 {
   "city": "Al Kufrah",
   "country": "Libya",
   "lat": 24.1667,
   "lng": 23.2696
 },
 {
   "city": "Qaminis",
   "country": "Libya",
   "lat": 31.6606,
   "lng": 20.0155
 },
 {
   "city": "Banghazi",
   "country": "Libya",
   "lat": 32.1167,
   "lng": 20.0667
 },
 {
   "city": "Misratah",
   "country": "Libya",
   "lat": 32.38,
   "lng": 15.1
 },
 {
   "city": "Kenitra",
   "country": "Morocco",
   "lat": 34.2704,
   "lng": -6.58
 },
 {
   "city": "Goulimine",
   "country": "Morocco",
   "lat": 28.98,
   "lng": -10.07
 },
 {
   "city": "Fez",
   "country": "Morocco",
   "lat": 34.0546,
   "lng": -5.0004
 },
 {
   "city": "Casablanca",
   "country": "Morocco",
   "lat": 33.6,
   "lng": -7.6164
 },
 {
   "city": "Agadir",
   "country": "Morocco",
   "lat": 30.44,
   "lng": -9.62
 },
 {
   "city": "Beni Mellal",
   "country": "Morocco",
   "lat": 32.3373,
   "lng": -6.3498
 },
 {
   "city": "Tangier",
   "country": "Morocco",
   "lat": 35.7473,
   "lng": -5.8327
 },
 {
   "city": "Settat",
   "country": "Morocco",
   "lat": 33.0104,
   "lng": -7.62
 },
 {
   "city": "Oujda",
   "country": "Morocco",
   "lat": 34.69,
   "lng": -1.91
 },
 {
   "city": "Meknes",
   "country": "Morocco",
   "lat": 33.9004,
   "lng": -5.56
 },
 {
   "city": "Rabat",
   "country": "Morocco",
   "lat": 34.0253,
   "lng": -6.8361
 },
 {
   "city": "Marrakesh",
   "country": "Morocco",
   "lat": 31.63,
   "lng": -8
 },
 {
   "city": "El Jadida",
   "country": "Morocco",
   "lat": 33.2604,
   "lng": -8.51
 },
 {
   "city": "Er Rachidia",
   "country": "Morocco",
   "lat": 31.9404,
   "lng": -4.45
 },
 {
   "city": "Tan Tan",
   "country": "Morocco",
   "lat": 28.4304,
   "lng": -11.1
 },
 {
   "city": "Taza",
   "country": "Morocco",
   "lat": 34.2204,
   "lng": -4.02
 },
 {
   "city": "Larache",
   "country": "Morocco",
   "lat": 35.2004,
   "lng": -6.16
 },
 {
   "city": "Ksar El Kebir",
   "country": "Morocco",
   "lat": 35.0204,
   "lng": -5.91
 },
 {
   "city": "Safi",
   "country": "Morocco",
   "lat": 32.32,
   "lng": -9.24
 },
 {
   "city": "Tiznit",
   "country": "Morocco",
   "lat": 29.7104,
   "lng": -9.74
 },
 {
   "city": "Ouezzane",
   "country": "Morocco",
   "lat": 34.8103,
   "lng": -5.57
 },
 {
   "city": "Monaco",
   "country": "Monaco",
   "lat": 43.7396,
   "lng": 7.4069
 },
 {
   "city": "Leova",
   "country": "Moldova",
   "lat": 46.4823,
   "lng": 28.253
 },
 {
   "city": "Rezina",
   "country": "Moldova",
   "lat": 47.7493,
   "lng": 28.9658
 },
 {
   "city": "Causeni",
   "country": "Moldova",
   "lat": 46.6367,
   "lng": 29.4111
 },
 {
   "city": "Riscani",
   "country": "Moldova",
   "lat": 47.9479,
   "lng": 27.5638
 },
 {
   "city": "Singerei",
   "country": "Moldova",
   "lat": 47.6363,
   "lng": 28.143
 },
 {
   "city": "Falesti",
   "country": "Moldova",
   "lat": 47.5767,
   "lng": 27.7126
 },
 {
   "city": "Floresti",
   "country": "Moldova",
   "lat": 47.8914,
   "lng": 28.2931
 },
 {
   "city": "soldanesti",
   "country": "Moldova",
   "lat": 47.8161,
   "lng": 28.7972
 },
 {
   "city": "stefan Voda",
   "country": "Moldova",
   "lat": 46.5129,
   "lng": 29.6619
 },
 {
   "city": "Orhei",
   "country": "Moldova",
   "lat": 47.3849,
   "lng": 28.8245
 },
 {
   "city": "Comrat",
   "country": "Moldova",
   "lat": 46.2946,
   "lng": 28.6565
 },
 {
   "city": "Cimislia",
   "country": "Moldova",
   "lat": 46.5268,
   "lng": 28.7644
 },
 {
   "city": "Cantemir",
   "country": "Moldova",
   "lat": 46.2774,
   "lng": 28.2027
 },
 {
   "city": "Basarabeasca",
   "country": "Moldova",
   "lat": 46.3317,
   "lng": 28.9636
 },
 {
   "city": "Edinet",
   "country": "Moldova",
   "lat": 48.1721,
   "lng": 27.3034
 },
 {
   "city": "Ocnita",
   "country": "Moldova",
   "lat": 48.3827,
   "lng": 27.4381
 },
 {
   "city": "Drochia",
   "country": "Moldova",
   "lat": 48.0355,
   "lng": 27.8129
 },
 {
   "city": "Donduseni",
   "country": "Moldova",
   "lat": 48.2394,
   "lng": 27.6056
 },
 {
   "city": "Briceni",
   "country": "Moldova",
   "lat": 48.3629,
   "lng": 27.0779
 },
 {
   "city": "Ialoveni",
   "country": "Moldova",
   "lat": 46.9435,
   "lng": 28.7823
 },
 {
   "city": "Balti",
   "country": "Moldova",
   "lat": 47.7591,
   "lng": 27.9053
 },
 {
   "city": "Criuleni",
   "country": "Moldova",
   "lat": 47.2131,
   "lng": 29.1593
 },
 {
   "city": "Bender",
   "country": "Moldova",
   "lat": 46.8316,
   "lng": 29.4777
 },
 {
   "city": "Anenii Noi",
   "country": "Moldova",
   "lat": 46.8784,
   "lng": 29.2348
 },
 {
   "city": "Cahul",
   "country": "Moldova",
   "lat": 45.9079,
   "lng": 28.1944
 },
 {
   "city": "Chisinau",
   "country": "Moldova",
   "lat": 47.005,
   "lng": 28.8577
 },
 {
   "city": "Straseni",
   "country": "Moldova",
   "lat": 47.1422,
   "lng": 28.6077
 },
 {
   "city": "Tiraspol",
   "country": "Moldova",
   "lat": 46.8531,
   "lng": 29.64
 },
 {
   "city": "Telenesti",
   "country": "Moldova",
   "lat": 47.5011,
   "lng": 28.3654
 },
 {
   "city": "Taraclia",
   "country": "Moldova",
   "lat": 45.9027,
   "lng": 28.6682
 },
 {
   "city": "Dubasari",
   "country": "Moldova",
   "lat": 47.2631,
   "lng": 29.1608
 },
 {
   "city": "Cocieri",
   "country": "Moldova",
   "lat": 47.3087,
   "lng": 29.1101
 },
 {
   "city": "Calarasi",
   "country": "Moldova",
   "lat": 47.2556,
   "lng": 28.3099
 },
 {
   "city": "Glodeni",
   "country": "Moldova",
   "lat": 47.7751,
   "lng": 27.5189
 },
 {
   "city": "Hincesti",
   "country": "Moldova",
   "lat": 46.8305,
   "lng": 28.5906
 },
 {
   "city": "Nisporeni",
   "country": "Moldova",
   "lat": 47.0816,
   "lng": 28.1714
 },
 {
   "city": "Soroca",
   "country": "Moldova",
   "lat": 48.1566,
   "lng": 28.2849
 },
 {
   "city": "Ungheni",
   "country": "Moldova",
   "lat": 47.2108,
   "lng": 27.8005
 },
 {
   "city": "Berane",
   "country": "Montenegro",
   "lat": 42.8425,
   "lng": 19.8733
 },
 {
   "city": "Plav",
   "country": "Montenegro",
   "lat": 42.5969,
   "lng": 19.9456
 },
 {
   "city": "Andrijevica",
   "country": "Montenegro",
   "lat": 42.7339,
   "lng": 19.7919
 },
 {
   "city": "Petnjica",
   "country": "Montenegro",
   "lat": 42.9089,
   "lng": 19.9644
 },
 {
   "city": "Gusinje",
   "country": "Montenegro",
   "lat": 42.5619,
   "lng": 19.8339
 },
 {
   "city": "KolaSin",
   "country": "Montenegro",
   "lat": 42.8242,
   "lng": 19.5225
 },
 {
   "city": "Podgorica",
   "country": "Montenegro",
   "lat": 42.466,
   "lng": 19.2663
 },
 {
   "city": "Bijelo Polje",
   "country": "Montenegro",
   "lat": 43.0292,
   "lng": 19.7456
 },
 {
   "city": "Bar",
   "country": "Montenegro",
   "lat": 42.0931,
   "lng": 19.1003
 },
 {
   "city": "Budva",
   "country": "Montenegro",
   "lat": 42.2864,
   "lng": 18.84
 },
 {
   "city": "Cetinje",
   "country": "Montenegro",
   "lat": 42.3922,
   "lng": 18.9225
 },
 {
   "city": "Danilovgrad",
   "country": "Montenegro",
   "lat": 42.5472,
   "lng": 19.1053
 },
 {
   "city": "Herceg-Novi",
   "country": "Montenegro",
   "lat": 42.4531,
   "lng": 18.5375
 },
 {
   "city": "Kotor",
   "country": "Montenegro",
   "lat": 42.4258,
   "lng": 18.7719
 },
 {
   "city": "Mojkovac",
   "country": "Montenegro",
   "lat": 42.9639,
   "lng": 19.5825
 },
 {
   "city": "NikSic",
   "country": "Montenegro",
   "lat": 42.775,
   "lng": 18.9583
 },
 {
   "city": "Pluzine",
   "country": "Montenegro",
   "lat": 43.1528,
   "lng": 18.8394
 },
 {
   "city": "Pljevlja",
   "country": "Montenegro",
   "lat": 43.3522,
   "lng": 19.3542
 },
 {
   "city": "Rozaje",
   "country": "Montenegro",
   "lat": 42.8439,
   "lng": 20.1683
 },
 {
   "city": "Savnik",
   "country": "Montenegro",
   "lat": 42.9564,
   "lng": 19.0967
 },
 {
   "city": "Tivat",
   "country": "Montenegro",
   "lat": 42.4364,
   "lng": 18.6961
 },
 {
   "city": "Ulcinj",
   "country": "Montenegro",
   "lat": 41.9283,
   "lng": 19.2064
 },
 {
   "city": "zabljak",
   "country": "Montenegro",
   "lat": 43.1547,
   "lng": 19.1219
 },
 {
   "city": "Marigot",
   "country": "Saint Martin",
   "lat": 18.0706,
   "lng": -63.0847
 },
 {
   "city": "Antananarivo",
   "country": "Madagascar",
   "lat": -18.9166,
   "lng": 47.5166
 },
 {
   "city": "Toamasina",
   "country": "Madagascar",
   "lat": -18.1818,
   "lng": 49.405
 },
 {
   "city": "Antalaha",
   "country": "Madagascar",
   "lat": -14.8833,
   "lng": 50.2833
 },
 {
   "city": "Maroantsetra",
   "country": "Madagascar",
   "lat": -15.4333,
   "lng": 49.7333
 },
 {
   "city": "Mandritsara",
   "country": "Madagascar",
   "lat": -15.8328,
   "lng": 48.8166
 },
 {
   "city": "Besalampy",
   "country": "Madagascar",
   "lat": -16.7495,
   "lng": 44.4833
 },
 {
   "city": "Marovoay",
   "country": "Madagascar",
   "lat": -16.0995,
   "lng": 46.6333
 },
 {
   "city": "Andoany",
   "country": "Madagascar",
   "lat": -13.4,
   "lng": 48.2666
 },
 {
   "city": "Mahajanga",
   "country": "Madagascar",
   "lat": -15.67,
   "lng": 46.345
 },
 {
   "city": "Ambanja",
   "country": "Madagascar",
   "lat": -13.6829,
   "lng": 48.45
 },
 {
   "city": "Antsiranana",
   "country": "Madagascar",
   "lat": -12.2765,
   "lng": 49.3115
 },
 {
   "city": "Miandrivazo",
   "country": "Madagascar",
   "lat": -19.5162,
   "lng": 45.4666
 },
 {
   "city": "Mananjary",
   "country": "Madagascar",
   "lat": -21.2167,
   "lng": 48.3333
 },
 {
   "city": "Morombe",
   "country": "Madagascar",
   "lat": -21.7391,
   "lng": 43.3657
 },
 {
   "city": "Toliara",
   "country": "Madagascar",
   "lat": -23.3568,
   "lng": 43.69
 },
 {
   "city": "Manja",
   "country": "Madagascar",
   "lat": -21.4329,
   "lng": 44.3333
 },
 {
   "city": "Fianarantsoa",
   "country": "Madagascar",
   "lat": -21.4333,
   "lng": 47.0833
 },
 {
   "city": "Androka",
   "country": "Madagascar",
   "lat": -25.0219,
   "lng": 44.0749
 },
 {
   "city": "Bekiy",
   "country": "Madagascar",
   "lat": -24.2162,
   "lng": 45.3166
 },
 {
   "city": "Antsirabe",
   "country": "Madagascar",
   "lat": -19.85,
   "lng": 47.0333
 },
 {
   "city": "Antsohihy",
   "country": "Madagascar",
   "lat": -14.8661,
   "lng": 47.9834
 },
 {
   "city": "Maintirano",
   "country": "Madagascar",
   "lat": -18.0666,
   "lng": 44.0167
 },
 {
   "city": "Ambatondrazaka",
   "country": "Madagascar",
   "lat": -17.8329,
   "lng": 48.4167
 },
 {
   "city": "Farafangana",
   "country": "Madagascar",
   "lat": -22.8166,
   "lng": 47.8332
 },
 {
   "city": "Ihosy",
   "country": "Madagascar",
   "lat": -22.3996,
   "lng": 46.1167
 },
 {
   "city": "Morondava",
   "country": "Madagascar",
   "lat": -20.2833,
   "lng": 44.2833
 },
 {
   "city": "Tolanaro",
   "country": "Madagascar",
   "lat": -25.0268,
   "lng": 46.99
 },
 {
   "city": "Sambava",
   "country": "Madagascar",
   "lat": -14.2662,
   "lng": 50.1666
 },
 {
   "city": "Majuro",
   "country": "Marshall Islands",
   "lat": 7.103,
   "lng": 171.38
 },
 {
   "city": "Vevcani",
   "country": "Macedonia",
   "lat": 41.2406,
   "lng": 20.5933
 },
 {
   "city": "Kocani",
   "country": "Macedonia",
   "lat": 41.9164,
   "lng": 22.4128
 },
 {
   "city": "Staro Nagoricane",
   "country": "Macedonia",
   "lat": 42.1981,
   "lng": 21.8286
 },
 {
   "city": "RadoviS",
   "country": "Macedonia",
   "lat": 41.6383,
   "lng": 22.4647
 },
 {
   "city": "SopiSte",
   "country": "Macedonia",
   "lat": 41.9547,
   "lng": 21.4275
 },
 {
   "city": "Petrovec",
   "country": "Macedonia",
   "lat": 41.9389,
   "lng": 21.615
 },
 {
   "city": "Bosilovo",
   "country": "Macedonia",
   "lat": 41.4406,
   "lng": 22.7278
 },
 {
   "city": "Zrnovci",
   "country": "Macedonia",
   "lat": 41.8542,
   "lng": 22.4444
 },
 {
   "city": "Gradsko",
   "country": "Macedonia",
   "lat": 41.5775,
   "lng": 21.9428
 },
 {
   "city": "Lipkovo",
   "country": "Macedonia",
   "lat": 42.1564,
   "lng": 21.5853
 },
 {
   "city": "Lozovo",
   "country": "Macedonia",
   "lat": 41.7839,
   "lng": 21.9056
 },
 {
   "city": "Plasnica",
   "country": "Macedonia",
   "lat": 41.4672,
   "lng": 21.1231
 },
 {
   "city": "Aracinovo",
   "country": "Macedonia",
   "lat": 42.0264,
   "lng": 21.5619
 },
 {
   "city": "Studenicani",
   "country": "Macedonia",
   "lat": 41.9158,
   "lng": 21.5306
 },
 {
   "city": "Resen",
   "country": "Macedonia",
   "lat": 41.0893,
   "lng": 21.0109
 },
 {
   "city": "Bogovinje",
   "country": "Macedonia",
   "lat": 41.9236,
   "lng": 20.9136
 },
 {
   "city": "Vinica",
   "country": "Macedonia",
   "lat": 41.8828,
   "lng": 22.5092
 },
 {
   "city": "BelciSta",
   "country": "Macedonia",
   "lat": 41.3028,
   "lng": 20.8303
 },
 {
   "city": "Mogila",
   "country": "Macedonia",
   "lat": 41.1083,
   "lng": 21.3786
 },
 {
   "city": "Veles",
   "country": "Macedonia",
   "lat": 41.7156,
   "lng": 21.7756
 },
 {
   "city": "Kavadarci",
   "country": "Macedonia",
   "lat": 41.4331,
   "lng": 22.0119
 },
 {
   "city": "Kumanovo",
   "country": "Macedonia",
   "lat": 42.1322,
   "lng": 21.7144
 },
 {
   "city": "Ohrid",
   "country": "Macedonia",
   "lat": 41.1172,
   "lng": 20.8019
 },
 {
   "city": "Strumica",
   "country": "Macedonia",
   "lat": 41.4375,
   "lng": 22.6433
 },
 {
   "city": "Makedonski Brod",
   "country": "Macedonia",
   "lat": 41.5136,
   "lng": 21.2153
 },
 {
   "city": "RostuSa",
   "country": "Macedonia",
   "lat": 41.61,
   "lng": 20.6
 },
 {
   "city": "Struga",
   "country": "Macedonia",
   "lat": 41.178,
   "lng": 20.6778
 },
 {
   "city": "cucer-Sandevo",
   "country": "Macedonia",
   "lat": 42.102,
   "lng": 21.3846
 },
 {
   "city": "Novo Selo",
   "country": "Macedonia",
   "lat": 41.4149,
   "lng": 22.8816
 },
 {
   "city": "Zelenikovo",
   "country": "Macedonia",
   "lat": 41.8841,
   "lng": 21.5885
 },
 {
   "city": "Star Dojran",
   "country": "Macedonia",
   "lat": 41.1865,
   "lng": 22.7203
 },
 {
   "city": "Skopje",
   "country": "Macedonia",
   "lat": 42,
   "lng": 21.4335
 },
 {
   "city": "Stip",
   "country": "Macedonia",
   "lat": 41.7423,
   "lng": 22.1979
 },
 {
   "city": "Makedonska Kamenica",
   "country": "Macedonia",
   "lat": 42.0208,
   "lng": 22.5876
 },
 {
   "city": "Ilinden",
   "country": "Macedonia",
   "lat": 41.9945,
   "lng": 21.58
 },
 {
   "city": "Demir Hisar",
   "country": "Macedonia",
   "lat": 41.221,
   "lng": 21.203
 },
 {
   "city": "zelino",
   "country": "Macedonia",
   "lat": 41.9825,
   "lng": 21.0624
 },
 {
   "city": "Prilep",
   "country": "Macedonia",
   "lat": 41.3451,
   "lng": 21.555
 },
 {
   "city": "Bitola",
   "country": "Macedonia",
   "lat": 41.0391,
   "lng": 21.3395
 },
 {
   "city": "KrivogaStani",
   "country": "Macedonia",
   "lat": 41.3369,
   "lng": 21.3311
 },
 {
   "city": "KruSevo",
   "country": "Macedonia",
   "lat": 41.3694,
   "lng": 21.2483
 },
 {
   "city": "Vasilevo",
   "country": "Macedonia",
   "lat": 41.4741,
   "lng": 22.643
 },
 {
   "city": "Gostivar",
   "country": "Macedonia",
   "lat": 41.796,
   "lng": 20.9082
 },
 {
   "city": "VrapciSte",
   "country": "Macedonia",
   "lat": 41.8344,
   "lng": 20.8856
 },
 {
   "city": "Novaci",
   "country": "Macedonia",
   "lat": 41.042,
   "lng": 21.4587
 },
 {
   "city": "caSka",
   "country": "Macedonia",
   "lat": 41.6487,
   "lng": 21.6922
 },
 {
   "city": "Kratovo",
   "country": "Macedonia",
   "lat": 42.0784,
   "lng": 22.1807
 },
 {
   "city": "ProbiStip",
   "country": "Macedonia",
   "lat": 42.0019,
   "lng": 22.1728
 },
 {
   "city": "Debar",
   "country": "Macedonia",
   "lat": 41.5244,
   "lng": 20.5242
 },
 {
   "city": "Centar zupa",
   "country": "Macedonia",
   "lat": 41.4788,
   "lng": 20.5586
 },
 {
   "city": "Rosoman",
   "country": "Macedonia",
   "lat": 41.5167,
   "lng": 21.9458
 },
 {
   "city": "Jegunovce",
   "country": "Macedonia",
   "lat": 42.0724,
   "lng": 21.1237
 },
 {
   "city": "Demir Kapija",
   "country": "Macedonia",
   "lat": 41.4061,
   "lng": 22.2463
 },
 {
   "city": "Negotino",
   "country": "Macedonia",
   "lat": 41.4846,
   "lng": 22.0906
 },
 {
   "city": "Konce",
   "country": "Macedonia",
   "lat": 41.4951,
   "lng": 22.3836
 },
 {
   "city": "Dolneni",
   "country": "Macedonia",
   "lat": 41.4258,
   "lng": 21.454
 },
 {
   "city": "Sveti Nikole",
   "country": "Macedonia",
   "lat": 41.8667,
   "lng": 21.9411
 },
 {
   "city": "Valandovo",
   "country": "Macedonia",
   "lat": 41.3174,
   "lng": 22.56
 },
 {
   "city": "Kicevo",
   "country": "Macedonia",
   "lat": 41.5127,
   "lng": 20.9589
 },
 {
   "city": "Delcevo",
   "country": "Macedonia",
   "lat": 41.9654,
   "lng": 22.7763
 },
 {
   "city": "Tetovo",
   "country": "Macedonia",
   "lat": 42.0092,
   "lng": 20.9701
 },
 {
   "city": "ceSinovo",
   "country": "Macedonia",
   "lat": 41.8715,
   "lng": 22.2896
 },
 {
   "city": "Karbinci",
   "country": "Macedonia",
   "lat": 41.8176,
   "lng": 22.2353
 },
 {
   "city": "Tearce",
   "country": "Macedonia",
   "lat": 42.0767,
   "lng": 21.0531
 },
 {
   "city": "Kriva Palanka",
   "country": "Macedonia",
   "lat": 42.2009,
   "lng": 22.3324
 },
 {
   "city": "Rankovce",
   "country": "Macedonia",
   "lat": 42.1686,
   "lng": 22.1166
 },
 {
   "city": "Pehcevo",
   "country": "Macedonia",
   "lat": 41.7623,
   "lng": 22.8892
 },
 {
   "city": "Gevgelija",
   "country": "Macedonia",
   "lat": 41.1417,
   "lng": 22.5014
 },
 {
   "city": "Bogdanci",
   "country": "Macedonia",
   "lat": 41.2031,
   "lng": 22.5756
 },
 {
   "city": "Berovo",
   "country": "Macedonia",
   "lat": 41.7031,
   "lng": 22.8578
 },
 {
   "city": "Brvenica",
   "country": "Macedonia",
   "lat": 41.9672,
   "lng": 20.9808
 },
 {
   "city": "Aguelhok",
   "country": "Mali",
   "lat": 19.4549,
   "lng": 0.8564
 },
 {
   "city": "Bamako",
   "country": "Mali",
   "lat": 12.65,
   "lng": -8
 },
 {
   "city": "Kidal",
   "country": "Mali",
   "lat": 18.4411,
   "lng": 1.4078
 },
 {
   "city": "Bourem",
   "country": "Mali",
   "lat": 16.9004,
   "lng": -0.35
 },
 {
   "city": "Mopti",
   "country": "Mali",
   "lat": 14.49,
   "lng": -4.18
 },
 {
   "city": "Gao",
   "country": "Mali",
   "lat": 16.2666,
   "lng": -0.05
 },
 {
   "city": "Satadougou",
   "country": "Mali",
   "lat": 12.617,
   "lng": -11.4066
 },
 {
   "city": "Koulikoro",
   "country": "Mali",
   "lat": 12.8833,
   "lng": -7.55
 },
 {
   "city": "Sikasso",
   "country": "Mali",
   "lat": 11.3204,
   "lng": -5.68
 },
 {
   "city": "Araouane",
   "country": "Mali",
   "lat": 18.9,
   "lng": -3.53
 },
 {
   "city": "Segou",
   "country": "Mali",
   "lat": 13.44,
   "lng": -6.26
 },
 {
   "city": "Timbuktu",
   "country": "Mali",
   "lat": 16.7666,
   "lng": -3.0166
 },
 {
   "city": "Markala",
   "country": "Mali",
   "lat": 13.6704,
   "lng": -6.07
 },
 {
   "city": "Taoudenni",
   "country": "Mali",
   "lat": 22.6666,
   "lng": -3.9834
 },
 {
   "city": "Kayes",
   "country": "Mali",
   "lat": 14.45,
   "lng": -11.44
 },
 {
   "city": "Sokolo",
   "country": "Mali",
   "lat": 14.7337,
   "lng": -6.1333
 },
 {
   "city": "Kita",
   "country": "Mali",
   "lat": 13.0504,
   "lng": -9.4833
 },
 {
   "city": "Nara",
   "country": "Mali",
   "lat": 15.18,
   "lng": -7.28
 },
 {
   "city": "Kati",
   "country": "Mali",
   "lat": 12.7504,
   "lng": -8.08
 },
 {
   "city": "Kangaba",
   "country": "Mali",
   "lat": 11.9404,
   "lng": -8.44
 },
 {
   "city": "San",
   "country": "Mali",
   "lat": 13.3004,
   "lng": -4.9
 },
 {
   "city": "Bougouni",
   "country": "Mali",
   "lat": 11.4204,
   "lng": -7.49
 },
 {
   "city": "Koutiala",
   "country": "Mali",
   "lat": 12.3904,
   "lng": -5.47
 },
 {
   "city": "Djenne",
   "country": "Mali",
   "lat": 13.9,
   "lng": -4.55
 },
 {
   "city": "Yelimane",
   "country": "Mali",
   "lat": 15.1337,
   "lng": -10.5666
 },
 {
   "city": "Bafoulabe",
   "country": "Mali",
   "lat": 13.8004,
   "lng": -10.82
 },
 {
   "city": "Nioro du Sahel",
   "country": "Mali",
   "lat": 15.2304,
   "lng": -9.59
 },
 {
   "city": "Goundam",
   "country": "Mali",
   "lat": 16.417,
   "lng": -3.6666
 },
 {
   "city": "Menaka",
   "country": "Mali",
   "lat": 15.9167,
   "lng": 2.4
 },
 {
   "city": "Tessalit",
   "country": "Mali",
   "lat": 20.2014,
   "lng": 1.0888
 },
 {
   "city": "Banamba",
   "country": "Mali",
   "lat": 13.5504,
   "lng": -7.45
 },
 {
   "city": "Rangoon",
   "country": "Burma",
   "lat": 16.7834,
   "lng": 96.1667
 },
 {
   "city": "Allanmyo",
   "country": "Burma",
   "lat": 19.3783,
   "lng": 95.2279
 },
 {
   "city": "Mudon",
   "country": "Burma",
   "lat": 16.2618,
   "lng": 97.7215
 },
 {
   "city": "Mawlamyine",
   "country": "Burma",
   "lat": 16.5004,
   "lng": 97.67
 },
 {
   "city": "Phyarpon",
   "country": "Burma",
   "lat": 16.2933,
   "lng": 95.6829
 },
 {
   "city": "Labutta",
   "country": "Burma",
   "lat": 16.1619,
   "lng": 94.7014
 },
 {
   "city": "Dawei",
   "country": "Burma",
   "lat": 14.098,
   "lng": 98.195
 },
 {
   "city": "Myeik",
   "country": "Burma",
   "lat": 12.4541,
   "lng": 98.6115
 },
 {
   "city": "Ye",
   "country": "Burma",
   "lat": 15.2533,
   "lng": 97.8679
 },
 {
   "city": "Namtu",
   "country": "Burma",
   "lat": 23.0837,
   "lng": 97.4
 },
 {
   "city": "Hinthada",
   "country": "Burma",
   "lat": 17.6483,
   "lng": 95.4679
 },
 {
   "city": "Thongwa",
   "country": "Burma",
   "lat": 16.7547,
   "lng": 96.5193
 },
 {
   "city": "Bago",
   "country": "Burma",
   "lat": 17.32,
   "lng": 96.515
 },
 {
   "city": "Pathein",
   "country": "Burma",
   "lat": 16.7704,
   "lng": 94.75
 },
 {
   "city": "Yandoon",
   "country": "Burma",
   "lat": 17.0433,
   "lng": 95.6429
 },
 {
   "city": "Wakema",
   "country": "Burma",
   "lat": 16.6133,
   "lng": 95.1829
 },
 {
   "city": "Pyay",
   "country": "Burma",
   "lat": 18.8165,
   "lng": 95.2114
 },
 {
   "city": "Chauk",
   "country": "Burma",
   "lat": 20.9085,
   "lng": 94.823
 },
 {
   "city": "Myitkyina",
   "country": "Burma",
   "lat": 25.3596,
   "lng": 97.3928
 },
 {
   "city": "Monywa",
   "country": "Burma",
   "lat": 22.105,
   "lng": 95.15
 },
 {
   "city": "Naypyidaw",
   "country": "Burma",
   "lat": 19.7666,
   "lng": 96.1186
 },
 {
   "city": "Loikaw",
   "country": "Burma",
   "lat": 19.665,
   "lng": 97.206
 },
 {
   "city": "Yaynangyoung",
   "country": "Burma",
   "lat": 20.4615,
   "lng": 94.881
 },
 {
   "city": "Kyaukphyu",
   "country": "Burma",
   "lat": 19.429,
   "lng": 93.5494
 },
 {
   "city": "Magway",
   "country": "Burma",
   "lat": 20.1445,
   "lng": 94.9196
 },
 {
   "city": "Shwebo",
   "country": "Burma",
   "lat": 22.5783,
   "lng": 95.6929
 },
 {
   "city": "Sagaing",
   "country": "Burma",
   "lat": 21.88,
   "lng": 95.962
 },
 {
   "city": "Myingyan",
   "country": "Burma",
   "lat": 21.4618,
   "lng": 95.3914
 },
 {
   "city": "Pakokku",
   "country": "Burma",
   "lat": 21.332,
   "lng": 95.0866
 },
 {
   "city": "Mandalay",
   "country": "Burma",
   "lat": 21.97,
   "lng": 96.085
 },
 {
   "city": "Taunggyi",
   "country": "Burma",
   "lat": 20.782,
   "lng": 97.038
 },
 {
   "city": "Pyu",
   "country": "Burma",
   "lat": 18.4779,
   "lng": 96.4379
 },
 {
   "city": "Taungoo",
   "country": "Burma",
   "lat": 18.9483,
   "lng": 96.4179
 },
 {
   "city": "Letpadan",
   "country": "Burma",
   "lat": 17.7819,
   "lng": 95.7415
 },
 {
   "city": "Sittwe",
   "country": "Burma",
   "lat": 20.14,
   "lng": 92.88
 },
 {
   "city": "Pa-an",
   "country": "Burma",
   "lat": 16.85,
   "lng": 97.6167
 },
 {
   "city": "Hakha",
   "country": "Burma",
   "lat": 22.65,
   "lng": 93.6167
 },
 {
   "city": "Olgiy",
   "country": "Mongolia",
   "lat": 48.9337,
   "lng": 89.95
 },
 {
   "city": "Mandalgovi",
   "country": "Mongolia",
   "lat": 45.75,
   "lng": 106.266
 },
 {
   "city": "Ulaanbaatar",
   "country": "Mongolia",
   "lat": 47.9167,
   "lng": 106.9166
 },
 {
   "city": "Moron",
   "country": "Mongolia",
   "lat": 49.6453,
   "lng": 100.1544
 },
 {
   "city": "Darhan",
   "country": "Mongolia",
   "lat": 49.6167,
   "lng": 106.35
 },
 {
   "city": "Erdenet",
   "country": "Mongolia",
   "lat": 49.0533,
   "lng": 104.1183
 },
 {
   "city": "Uliastay",
   "country": "Mongolia",
   "lat": 47.75,
   "lng": 96.8167
 },
 {
   "city": "Choyr",
   "country": "Mongolia",
   "lat": 46.3611,
   "lng": 108.3611
 },
 {
   "city": "Altay",
   "country": "Mongolia",
   "lat": 46.3722,
   "lng": 96.2583
 },
 {
   "city": "Buyant-Uhaa",
   "country": "Mongolia",
   "lat": 44.8666,
   "lng": 110.15
 },
 {
   "city": "Choybalsan",
   "country": "Mongolia",
   "lat": 48.0666,
   "lng": 114.506
 },
 {
   "city": "Ulaangom",
   "country": "Mongolia",
   "lat": 49.9833,
   "lng": 92.0666
 },
 {
   "city": "Bulgan",
   "country": "Mongolia",
   "lat": 48.8106,
   "lng": 103.5317
 },
 {
   "city": "Arvayheer",
   "country": "Mongolia",
   "lat": 46.25,
   "lng": 102.7666
 },
 {
   "city": "Tsetserleg",
   "country": "Mongolia",
   "lat": 47.4769,
   "lng": 101.4502
 },
 {
   "city": "Bayankhongor",
   "country": "Mongolia",
   "lat": 46.3,
   "lng": 100.9833
 },
 {
   "city": "Darhan",
   "country": "Mongolia",
   "lat": 49.4867,
   "lng": 105.9228
 },
 {
   "city": "Dzuunharaa",
   "country": "Mongolia",
   "lat": 48.8666,
   "lng": 106.4666
 },
 {
   "city": "Dzuunmod",
   "country": "Mongolia",
   "lat": 47.711,
   "lng": 106.947
 },
 {
   "city": "Ondorhaan",
   "country": "Mongolia",
   "lat": 47.3167,
   "lng": 110.65
 },
 {
   "city": "Dalandzadgad",
   "country": "Mongolia",
   "lat": 43.5708,
   "lng": 104.425
 },
 {
   "city": "Ulaan-Uul",
   "country": "Mongolia",
   "lat": 44.3337,
   "lng": 111.2333
 },
 {
   "city": "Hodrogo",
   "country": "Mongolia",
   "lat": 48.9664,
   "lng": 96.7833
 },
 {
   "city": "Baruun Urt",
   "country": "Mongolia",
   "lat": 46.7,
   "lng": 113.2833
 },
 {
   "city": "Suchboatar",
   "country": "Mongolia",
   "lat": 50.25,
   "lng": 106.2
 },
 {
   "city": "Dund-Us",
   "country": "Mongolia",
   "lat": 48.0166,
   "lng": 91.6333
 },
 {
   "city": "Dalandzadgad",
   "country": "Mongolia",
   "lat": 43.5836,
   "lng": 104.4403
 },
 {
   "city": "Macau",
   "country": "Macau",
   "lat": 22.203,
   "lng": 113.545
 },
 {
   "city": "Fort-de-France",
   "country": "Martinique",
   "lat": 14.6104,
   "lng": -61.08
 },
 {
   "city": "Bogue",
   "country": "Mauritania",
   "lat": 16.5904,
   "lng": -14.27
 },
 {
   "city": "Chegga",
   "country": "Mauritania",
   "lat": 25.3804,
   "lng": -5.78
 },
 {
   "city": "Boutilimit",
   "country": "Mauritania",
   "lat": 17.5504,
   "lng": -14.7
 },
 {
   "city": "Timbedra",
   "country": "Mauritania",
   "lat": 16.2504,
   "lng": -8.1666
 },
 {
   "city": "Bir Mogrein",
   "country": "Mauritania",
   "lat": 25.2333,
   "lng": -11.5833
 },
 {
   "city": "Fderik",
   "country": "Mauritania",
   "lat": 22.679,
   "lng": -12.707
 },
 {
   "city": "Selibaby",
   "country": "Mauritania",
   "lat": 15.167,
   "lng": -12.1833
 },
 {
   "city": "Aleg",
   "country": "Mauritania",
   "lat": 17.058,
   "lng": -13.909
 },
 {
   "city": "Akjoujt",
   "country": "Mauritania",
   "lat": 19.747,
   "lng": -14.391
 },
 {
   "city": "Kiffa",
   "country": "Mauritania",
   "lat": 16.62,
   "lng": -11.4
 },
 {
   "city": "Nema",
   "country": "Mauritania",
   "lat": 16.6171,
   "lng": -7.25
 },
 {
   "city": "Nouadhibou",
   "country": "Mauritania",
   "lat": 20.9,
   "lng": -17.056
 },
 {
   "city": "Rosso",
   "country": "Mauritania",
   "lat": 16.524,
   "lng": -15.8127
 },
 {
   "city": "Tidjikdja",
   "country": "Mauritania",
   "lat": 18.55,
   "lng": -11.4166
 },
 {
   "city": "Atar",
   "country": "Mauritania",
   "lat": 20.5166,
   "lng": -13.05
 },
 {
   "city": "Kaedi",
   "country": "Mauritania",
   "lat": 16.1503,
   "lng": -13.5037
 },
 {
   "city": "Zouirat",
   "country": "Mauritania",
   "lat": 22.7304,
   "lng": -12.4833
 },
 {
   "city": "Arafat",
   "country": "Mauritania",
   "lat": 18.0583,
   "lng": -15.9621
 },
 {
   "city": "Dar Naim",
   "country": "Mauritania",
   "lat": 18.0973,
   "lng": -15.9327
 },
 {
   "city": "Tevragh Zeina",
   "country": "Mauritania",
   "lat": 18.0989,
   "lng": -15.9885
 },
 {
   "city": "Nouakchott",
   "country": "Mauritania",
   "lat": 18.0864,
   "lng": -15.9753
 },
 {
   "city": "Ayoun el Atrous",
   "country": "Mauritania",
   "lat": 16.6666,
   "lng": -9.6167
 },
 {
   "city": "Plymouth",
   "country": "Montserrat",
   "lat": 16.7,
   "lng": -62.2167
 },
 {
   "city": "Birzebbuga",
   "country": "Malta",
   "lat": 35.8258,
   "lng": 14.5269
 },
 {
   "city": "Marsaskala",
   "country": "Malta",
   "lat": 35.8669,
   "lng": 14.5619
 },
 {
   "city": "Marsaxlokk",
   "country": "Malta",
   "lat": 35.8419,
   "lng": 14.5431
 },
 {
   "city": "Kirkop",
   "country": "Malta",
   "lat": 35.8422,
   "lng": 14.4853
 },
 {
   "city": "Pieta",
   "country": "Malta",
   "lat": 35.8947,
   "lng": 14.495
 },
 {
   "city": "zejtun",
   "country": "Malta",
   "lat": 35.8558,
   "lng": 14.5331
 },
 {
   "city": "Attard",
   "country": "Malta",
   "lat": 35.8897,
   "lng": 14.4425
 },
 {
   "city": "Pembroke",
   "country": "Malta",
   "lat": 35.9306,
   "lng": 14.4764
 },
 {
   "city": "zebbug",
   "country": "Malta",
   "lat": 35.8719,
   "lng": 14.4411
 },
 {
   "city": "Taï¿½ Xbiex",
   "country": "Malta",
   "lat": 35.8992,
   "lng": 14.4944
 },
 {
   "city": "Sliema",
   "country": "Malta",
   "lat": 35.9125,
   "lng": 14.5019
 },
 {
   "city": "San Lawrenz",
   "country": "Malta",
   "lat": 36.0556,
   "lng": 14.2036
 },
 {
   "city": "Imqabba",
   "country": "Malta",
   "lat": 35.8461,
   "lng": 14.4672
 },
 {
   "city": "Imdina",
   "country": "Malta",
   "lat": 35.8869,
   "lng": 14.4025
 },
 {
   "city": "Qala",
   "country": "Malta",
   "lat": 36.0361,
   "lng": 14.3094
 },
 {
   "city": "Imtarfa",
   "country": "Malta",
   "lat": 35.8933,
   "lng": 14.3989
 },
 {
   "city": "zurrieq",
   "country": "Malta",
   "lat": 35.8311,
   "lng": 14.4742
 },
 {
   "city": "Gudja",
   "country": "Malta",
   "lat": 35.8492,
   "lng": 14.5031
 },
 {
   "city": "Sannat",
   "country": "Malta",
   "lat": 36.0244,
   "lng": 14.2428
 },
 {
   "city": "Valletta",
   "country": "Malta",
   "lat": 35.8997,
   "lng": 14.5147
 },
 {
   "city": "zabbar",
   "country": "Malta",
   "lat": 35.8761,
   "lng": 14.535
 },
 {
   "city": "Luqa",
   "country": "Malta",
   "lat": 35.8589,
   "lng": 14.4886
 },
 {
   "city": "Qormi",
   "country": "Malta",
   "lat": 35.8783,
   "lng": 14.4719
 },
 {
   "city": "Imgarr",
   "country": "Malta",
   "lat": 35.9206,
   "lng": 14.3664
 },
 {
   "city": "Saint Paulï¿½s Bay",
   "country": "Malta",
   "lat": 35.9483,
   "lng": 14.4006
 },
 {
   "city": "Qrendi",
   "country": "Malta",
   "lat": 35.8347,
   "lng": 14.4583
 },
 {
   "city": "Munxar",
   "country": "Malta",
   "lat": 36.03,
   "lng": 14.2333
 },
 {
   "city": "hamrun",
   "country": "Malta",
   "lat": 35.8847,
   "lng": 14.4844
 },
 {
   "city": "Naxxar",
   "country": "Malta",
   "lat": 35.9136,
   "lng": 14.4436
 },
 {
   "city": "Ghaxaq",
   "country": "Malta",
   "lat": 35.8489,
   "lng": 14.5167
 },
 {
   "city": "Ghasri",
   "country": "Malta",
   "lat": 36.0578,
   "lng": 14.2264
 },
 {
   "city": "Victoria",
   "country": "Malta",
   "lat": 36.0444,
   "lng": 14.2397
 },
 {
   "city": "Iklin",
   "country": "Malta",
   "lat": 35.9092,
   "lng": 14.4522
 },
 {
   "city": "Gharghur",
   "country": "Malta",
   "lat": 35.9242,
   "lng": 14.4519
 },
 {
   "city": "Dingli",
   "country": "Malta",
   "lat": 35.8614,
   "lng": 14.3822
 },
 {
   "city": "Siggiewi",
   "country": "Malta",
   "lat": 35.8556,
   "lng": 14.4364
 },
 {
   "city": "Xewkija",
   "country": "Malta",
   "lat": 36.0328,
   "lng": 14.2581
 },
 {
   "city": "Lija",
   "country": "Malta",
   "lat": 35.9006,
   "lng": 14.4464
 },
 {
   "city": "Safi",
   "country": "Malta",
   "lat": 35.8331,
   "lng": 14.4847
 },
 {
   "city": "Senglea",
   "country": "Malta",
   "lat": 35.8875,
   "lng": 14.5169
 },
 {
   "city": "Xaghra",
   "country": "Malta",
   "lat": 36.05,
   "lng": 14.2644
 },
 {
   "city": "Xghajra",
   "country": "Malta",
   "lat": 35.8856,
   "lng": 14.5475
 },
 {
   "city": "zebbug",
   "country": "Malta",
   "lat": 36.0722,
   "lng": 14.2358
 },
 {
   "city": "Gzira",
   "country": "Malta",
   "lat": 35.9058,
   "lng": 14.4881
 },
 {
   "city": "Imsida",
   "country": "Malta",
   "lat": 35.8925,
   "lng": 14.4828
 },
 {
   "city": "Kalkara",
   "country": "Malta",
   "lat": 35.8892,
   "lng": 14.5328
 },
 {
   "city": "Kercem",
   "country": "Malta",
   "lat": 36.0419,
   "lng": 14.2267
 },
 {
   "city": "Mellieha",
   "country": "Malta",
   "lat": 35.9564,
   "lng": 14.3622
 },
 {
   "city": "Mosta",
   "country": "Malta",
   "lat": 35.9092,
   "lng": 14.4256
 },
 {
   "city": "Nadur",
   "country": "Malta",
   "lat": 36.0378,
   "lng": 14.2942
 },
 {
   "city": "Paola",
   "country": "Malta",
   "lat": 35.8731,
   "lng": 14.4989
 },
 {
   "city": "Rabat",
   "country": "Malta",
   "lat": 35.8822,
   "lng": 14.3981
 },
 {
   "city": "Marsa",
   "country": "Malta",
   "lat": 35.8792,
   "lng": 14.4953
 },
 {
   "city": "San giljan",
   "country": "Malta",
   "lat": 35.9197,
   "lng": 14.4844
 },
 {
   "city": "San gwann",
   "country": "Malta",
   "lat": 35.9056,
   "lng": 14.4761
 },
 {
   "city": "Santa Lucija",
   "country": "Malta",
   "lat": 36.0431,
   "lng": 14.2172
 },
 {
   "city": "Santa Venera",
   "country": "Malta",
   "lat": 35.8908,
   "lng": 14.4742
 },
 {
   "city": "Swieqi",
   "country": "Malta",
   "lat": 35.9225,
   "lng": 14.48
 },
 {
   "city": "Tarxien",
   "country": "Malta",
   "lat": 35.8658,
   "lng": 14.515
 },
 {
   "city": "Balzan",
   "country": "Malta",
   "lat": 35.9003,
   "lng": 14.455
 },
 {
   "city": "Vittoriosa",
   "country": "Malta",
   "lat": 35.8922,
   "lng": 14.5183
 },
 {
   "city": "Birkirkara",
   "country": "Malta",
   "lat": 35.8972,
   "lng": 14.4611
 },
 {
   "city": "Cospicua",
   "country": "Malta",
   "lat": 35.8856,
   "lng": 14.5275
 },
 {
   "city": "Fgura",
   "country": "Malta",
   "lat": 35.8703,
   "lng": 14.5133
 },
 {
   "city": "Floriana",
   "country": "Malta",
   "lat": 35.8958,
   "lng": 14.5083
 },
 {
   "city": "Fontana",
   "country": "Malta",
   "lat": 36.0375,
   "lng": 14.2361
 },
 {
   "city": "Ghajnsielem",
   "country": "Malta",
   "lat": 36.0264,
   "lng": 14.285
 },
 {
   "city": "Gharb",
   "country": "Malta",
   "lat": 36.06,
   "lng": 14.2089
 },
 {
   "city": "Port Louis",
   "country": "Mauritius",
   "lat": -20.1666,
   "lng": 57.5
 },
 {
   "city": "Curepipe",
   "country": "Mauritius",
   "lat": -20.3162,
   "lng": 57.5166
 },
 {
   "city": "Male",
   "country": "Maldives",
   "lat": 4.1667,
   "lng": 73.4999
 },
 {
   "city": "Eydhafushi",
   "country": "Maldives",
   "lat": 5.1038,
   "lng": 73.0699
 },
 {
   "city": "Felidhoo",
   "country": "Maldives",
   "lat": 3.4718,
   "lng": 73.547
 },
 {
   "city": "Funadhoo",
   "country": "Maldives",
   "lat": 6.1509,
   "lng": 73.2901
 },
 {
   "city": "Hithadhoo",
   "country": "Maldives",
   "lat": -0.6,
   "lng": 73.0833
 },
 {
   "city": "Kudahuvadhoo",
   "country": "Maldives",
   "lat": 2.6717,
   "lng": 72.8936
 },
 {
   "city": "Kulhudhuffushi",
   "country": "Maldives",
   "lat": 6.6223,
   "lng": 73.0702
 },
 {
   "city": "Mahibadhoo",
   "country": "Maldives",
   "lat": 3.7571,
   "lng": 72.9689
 },
 {
   "city": "Manadhoo",
   "country": "Maldives",
   "lat": 5.7669,
   "lng": 73.4136
 },
 {
   "city": "Muli",
   "country": "Maldives",
   "lat": 2.9217,
   "lng": 73.5811
 },
 {
   "city": "Naifaru",
   "country": "Maldives",
   "lat": 5.4442,
   "lng": 73.3662
 },
 {
   "city": "Thinadhoo",
   "country": "Maldives",
   "lat": 0.5303,
   "lng": 72.9967
 },
 {
   "city": "Unï¿½goofaaru",
   "country": "Maldives",
   "lat": 5.6681,
   "lng": 73.0302
 },
 {
   "city": "Veymandoo",
   "country": "Maldives",
   "lat": 2.1878,
   "lng": 73.095
 },
 {
   "city": "Fonadhoo",
   "country": "Maldives",
   "lat": 1.8342,
   "lng": 73.5031
 },
 {
   "city": "Rasdhoo",
   "country": "Maldives",
   "lat": 4.2631,
   "lng": 72.9919
 },
 {
   "city": "Thulusdhoo",
   "country": "Maldives",
   "lat": 4.3742,
   "lng": 73.6517
 },
 {
   "city": "Dhihdhoo",
   "country": "Maldives",
   "lat": 6.8874,
   "lng": 73.114
 },
 {
   "city": "Foammulah",
   "country": "Maldives",
   "lat": -0.3,
   "lng": 73.4256
 },
 {
   "city": "Viligili",
   "country": "Maldives",
   "lat": 0.7539,
   "lng": 73.4353
 },
 {
   "city": "Nilandhoo",
   "country": "Maldives",
   "lat": 3.0567,
   "lng": 72.89
 },
 {
   "city": "Thyolo",
   "country": "Malawi",
   "lat": -16.0703,
   "lng": 35.1471
 },
 {
   "city": "Mwanza",
   "country": "Malawi",
   "lat": -15.6167,
   "lng": 34.5167
 },
 {
   "city": "Chiradzulu",
   "country": "Malawi",
   "lat": -15.7,
   "lng": 35.1833
 },
 {
   "city": "Karonga",
   "country": "Malawi",
   "lat": -9.9329,
   "lng": 33.9333
 },
 {
   "city": "Neno",
   "country": "Malawi",
   "lat": -15.3981,
   "lng": 34.6534
 },
 {
   "city": "Zomba",
   "country": "Malawi",
   "lat": -15.39,
   "lng": 35.31
 },
 {
   "city": "Chikwawa",
   "country": "Malawi",
   "lat": -16.042,
   "lng": 34.8019
 },
 {
   "city": "Mulanje",
   "country": "Malawi",
   "lat": -16.0333,
   "lng": 35.5
 },
 {
   "city": "Blantyre",
   "country": "Malawi",
   "lat": -15.79,
   "lng": 34.9899
 },
 {
   "city": "Chiromo",
   "country": "Malawi",
   "lat": -16.55,
   "lng": 35.1332
 },
 {
   "city": "Phalombe",
   "country": "Malawi",
   "lat": -15.8064,
   "lng": 35.6507
 },
 {
   "city": "Nsanje",
   "country": "Malawi",
   "lat": -16.9167,
   "lng": 35.2667
 },
 {
   "city": "Nkhata Bay",
   "country": "Malawi",
   "lat": -11.5996,
   "lng": 34.3
 },
 {
   "city": "Rumphi",
   "country": "Malawi",
   "lat": -11.0195,
   "lng": 33.8546
 },
 {
   "city": "Chitipa",
   "country": "Malawi",
   "lat": -9.7162,
   "lng": 33.2666
 },
 {
   "city": "Mzuzu",
   "country": "Malawi",
   "lat": -11.46,
   "lng": 34.02
 },
 {
   "city": "Mzimba",
   "country": "Malawi",
   "lat": -11.9,
   "lng": 33.6
 },
 {
   "city": "Ntchisi",
   "country": "Malawi",
   "lat": -13.3753,
   "lng": 34.0036
 },
 {
   "city": "Dowa",
   "country": "Malawi",
   "lat": -13.6532,
   "lng": 33.9385
 },
 {
   "city": "Mchinji",
   "country": "Malawi",
   "lat": -13.8,
   "lng": 32.9
 },
 {
   "city": "Nkhotakota",
   "country": "Malawi",
   "lat": -12.9163,
   "lng": 34.3
 },
 {
   "city": "Kasungu",
   "country": "Malawi",
   "lat": -13.0364,
   "lng": 33.4822
 },
 {
   "city": "Ntcheu",
   "country": "Malawi",
   "lat": -14.8167,
   "lng": 34.6333
 },
 {
   "city": "Dedza",
   "country": "Malawi",
   "lat": -14.3667,
   "lng": 34.3333
 },
 {
   "city": "Salima",
   "country": "Malawi",
   "lat": -13.7829,
   "lng": 34.4333
 },
 {
   "city": "Lilongwe",
   "country": "Malawi",
   "lat": -13.9833,
   "lng": 33.7833
 },
 {
   "city": "Mangochi",
   "country": "Malawi",
   "lat": -14.4596,
   "lng": 35.27
 },
 {
   "city": "Balaka",
   "country": "Malawi",
   "lat": -14.9889,
   "lng": 34.9591
 },
 {
   "city": "Machinga",
   "country": "Malawi",
   "lat": -14.9667,
   "lng": 35.5167
 },
 {
   "city": "Nacozari de Garcia",
   "country": "Mexico",
   "lat": 30.42,
   "lng": -109.65
 },
 {
   "city": "Nueva Rosita",
   "country": "Mexico",
   "lat": 27.95,
   "lng": -101.22
 },
 {
   "city": "San Felipe",
   "country": "Mexico",
   "lat": 31.0241,
   "lng": -114.8496
 },
 {
   "city": "Zacatecas",
   "country": "Mexico",
   "lat": 22.7704,
   "lng": -102.58
 },
 {
   "city": "Irapuato",
   "country": "Mexico",
   "lat": 20.67,
   "lng": -101.5
 },
 {
   "city": "Vicente Guerrero",
   "country": "Mexico",
   "lat": 30.7641,
   "lng": -116.0093
 },
 {
   "city": "San Quintin",
   "country": "Mexico",
   "lat": 30.4837,
   "lng": -115.95
 },
 {
   "city": "Chetumal",
   "country": "Mexico",
   "lat": 18.5,
   "lng": -88.3
 },
 {
   "city": "Esperanza",
   "country": "Mexico",
   "lat": 27.58,
   "lng": -109.93
 },
 {
   "city": "Izamal",
   "country": "Mexico",
   "lat": 20.9304,
   "lng": -89.0201
 },
 {
   "city": "Ticul",
   "country": "Mexico",
   "lat": 20.4004,
   "lng": -89.53
 },
 {
   "city": "Villahermosa",
   "country": "Mexico",
   "lat": 18,
   "lng": -92.9
 },